2024-01-17T12:09:13.408 $GPGGA,170913.000,4217.9736,N,07121.1041,W,2,07,1.71,66.4,M,-33.8,M,0000,0000*6B
2024-01-17T12:09:13.468 $GPGSA,A,3,26,04,31,28,09,16,07,,,,,,2.12,1.71,1.24*02
2024-01-17T12:09:13.548 $GPRMC,170913.000,A,4217.9736,N,07121.1041,W,0.18,239.71,170124,,,D*78
2024-01-17T12:09:13.594 $GPVTG,239.71,T,,M,0.18,N,0.34,K,D*38
2024-01-17T12:09:14.471 $GPGGA,170914.000,4217.9736,N,07121.1042,W,2,07,1.71,66.4,M,-33.8,M,0000,0000*6F
2024-01-17T12:09:14.542 $GPGSA,A,3,26,04,31,28,09,16,07,,,,,,1.88,1.71,0.78*0A
2024-01-17T12:09:14.603 $GPRMC,170914.000,A,4217.9736,N,07121.1042,W,0.25,258.19,170124,,,D*7B
2024-01-17T12:09:14.846 $GPVTG,258.19,T,,M,0.25,N,0.47,K,D*3B
2024-01-17T12:09:15.399 $GPGGA,170915.000,4217.9735,N,07121.1043,W,2,07,1.71,66.4,M,-33.8,M,0000,0000*6C
2024-01-17T12:09:15.471 $GPGSA,A,3,26,04,31,28,09,16,07,,,,,,1.88,1.71,0.78*0A
2024-01-17T12:09:15.551 $GPRMC,170915.000,A,4217.9735,N,07121.1043,W,0.33,234.36,170124,,,D*78
2024-01-17T12:09:15.590 $GPVTG,234.36,T,,M,0.33,N,0.61,K,D*3F
2024-01-17T12:09:16.415 $GPGGA,170916.000,4217.9735,N,07121.1043,W,2,07,1.71,66.4,M,-33.8,M,0000,0000*6F
2024-01-17T12:09:16.475 $GPGSA,A,3,26,04,31,28,09,16,07,,,,,,1.88,1.71,0.78*0A
2024-01-17T12:09:16.557 $GPRMC,170916.000,A,4217.9735,N,07121.1043,W,0.14,222.04,170124,,,D*78
2024-01-17T12:09:16.599 $GPVTG,222.04,T,,M,0.14,N,0.27,K,D*3E
2024-01-17T12:09:17.413 $GPGGA,170917.000,4217.9735,N,07121.1043,W,2,07,1.71,66.4,M,-33.8,M,0000,0000*6E
2024-01-17T12:09:17.484 $GPGSA,A,3,26,04,31,28,09,16,07,,,,,,1.88,1.71,0.78*0A
2024-01-17T12:09:17.565 $GPGSV,3,1,11,16,77,027,22,04,64,245,36,26,48,056,16,09,39,303,36*73
2024-01-17T12:09:17.625 $GPGSV,3,2,11,31,33,103,29,08,20,191,25,46,14,247,34,28,10,110,25*7A
2024-01-17T12:09:17.686 $GPGSV,3,3,11,18,08,069,17,07,07,295,28,03,02,221,16*42
2024-01-17T12:09:17.766 $GPRMC,170917.000,A,4217.9735,N,07121.1043,W,0.18,356.19,170124,,,D*7B
2024-01-17T12:09:17.810 $GPVTG,356.19,T,,M,0.18,N,0.33,K,D*39
2024-01-17T12:09:18.460 $GPGGA,170918.000,4217.9735,N,07121.1043,W,2,07,1.71,66.4,M,-33.8,M,0000,0000*61
2024-01-17T12:09:18.522 $GPGSA,A,3,26,04,31,28,09,16,07,,,,,,2.11,1.71,1.24*01
2024-01-17T12:09:18.602 $GPRMC,170918.000,A,4217.9735,N,07121.1043,W,0.06,1.52,170124,,,D*75
2024-01-17T12:09:18.647 $GPVTG,1.52,T,,M,0.06,N,0.11,K,D*38
2024-01-17T12:09:19.500 $GPGGA,170919.000,4217.9735,N,07121.1043,W,2,07,1.71,66.4,M,-33.8,M,0000,0000*60
2024-01-17T12:09:19.540 $GPGSA,A,3,26,04,31,28,09,16,07,,,,,,2.11,1.71,1.24*01
2024-01-17T12:09:19.621 $GPRMC,170919.000,A,4217.9735,N,07121.1043,W,0.07,169.99,170124,,,D*7D
2024-01-17T12:09:19.691 $GPVTG,169.99,T,,M,0.07,N,0.13,K,D*33
2024-01-17T12:09:20.427 $GPGGA,170920.000,4217.9735,N,07121.1043,W,2,07,1.71,66.4,M,-33.8,M,0000,0000*6A
2024-01-17T12:09:20.468 $GPGSA,A,3,26,04,31,28,09,16,07,,,,,,1.88,1.71,0.78*0A
2024-01-17T12:09:20.547 $GPRMC,170920.000,A,4217.9735,N,07121.1043,W,0.20,189.38,170124,,,D*77
2024-01-17T12:09:20.611 $GPVTG,189.38,T,,M,0.20,N,0.37,K,D*35
2024-01-17T12:09:21.414 $GPGGA,170921.000,4217.9735,N,07121.1044,W,2,07,1.71,66.4,M,-33.8,M,0000,0000*6C
2024-01-17T12:09:21.476 $GPGSA,A,3,26,04,31,28,09,16,07,,,,,,1.88,1.71,0.78*0A
2024-01-17T12:09:21.547 $GPRMC,170921.000,A,4217.9735,N,07121.1044,W,0.06,201.86,170124,,,D*73
2024-01-17T12:09:21.592 $GPVTG,201.86,T,,M,0.06,N,0.11,K,D*33
2024-01-17T12:09:22.427 $GPGGA,170922.000,4217.9734,N,07121.1044,W,2,07,1.71,66.4,M,-33.8,M,0000,0000*6E
2024-01-17T12:09:22.468 $GPGSA,A,3,26,04,31,28,09,16,07,,,,,,1.88,1.71,0.78*0A
2024-01-17T12:09:22.550 $GPGSV,3,1,11,16,77,027,27,04,64,245,36,26,48,056,21,09,39,303,38*7C
2024-01-17T12:09:22.611 $GPGSV,3,2,11,31,33,103,18,08,20,191,29,46,14,247,38,28,10,110,22*7F
2024-01-17T12:09:22.683 $GPGSV,3,3,11,07,08,296,31,18,08,069,18,03,02,221,13*4C
2024-01-17T12:09:22.754 $GPRMC,170922.000,A,4217.9734,N,07121.1044,W,0.17,136.53,170124,,,D*7E
2024-01-17T12:09:22.982 $GPVTG,136.53,T,,M,0.17,N,0.31,K,D*3E
2024-01-17T12:09:23.466 $GPGGA,170923.000,4217.9734,N,07121.1043,W,2,07,1.71,66.4,M,-33.8,M,0000,0000*68
2024-01-17T12:09:23.527 $GPGSA,A,3,26,04,31,28,09,16,07,,,,,,1.88,1.71,0.78*0A
2024-01-17T12:09:23.609 $GPRMC,170923.000,A,4217.9734,N,07121.1043,W,0.03,314.59,170124,,,D*75
2024-01-17T12:09:23.651 $GPVTG,314.59,T,,M,0.03,N,0.06,K,D*37
2024-01-17T12:09:24.436 $GPGGA,170924.000,4217.9734,N,07121.1044,W,2,07,1.71,66.4,M,-33.8,M,0000,0000*68
2024-01-17T12:09:24.506 $GPGSA,A,3,26,04,31,28,09,16,07,,,,,,1.88,1.71,0.78*0A
2024-01-17T12:09:24.576 $GPRMC,170924.000,A,4217.9734,N,07121.1044,W,0.32,340.06,170124,,,D*7C
2024-01-17T12:09:24.622 $GPVTG,340.06,T,,M,0.32,N,0.60,K,D*3E
2024-01-17T12:09:25.473 $GPGGA,170925.000,4217.9735,N,07121.1044,W,2,07,1.71,66.4,M,-33.8,M,0000,0000*68
2024-01-17T12:09:25.544 $GPGSA,A,3,26,04,31,28,09,16,07,,,,,,1.88,1.71,0.78*0A
2024-01-17T12:09:25.604 $GPRMC,170925.000,A,4217.9735,N,07121.1044,W,0.49,20.49,170124,,,D*4E
2024-01-17T12:09:25.667 $GPVTG,20.49,T,,M,0.49,N,0.92,K,D*01
2024-01-17T12:09:26.467 $GPGGA,170926.000,4217.9736,N,07121.1043,W,2,07,1.71,66.4,M,-33.8,M,0000,0000*6F
2024-01-17T12:09:26.528 $GPGSA,A,3,26,04,31,28,09,16,07,,,,,,1.88,1.71,0.78*0A
2024-01-17T12:09:26.599 $GPRMC,170926.000,A,4217.9736,N,07121.1043,W,0.56,351.07,170124,,,D*78
2024-01-17T12:09:26.642 $GPVTG,351.07,T,,M,0.56,N,1.04,K,D*3E
2024-01-17T12:09:27.424 $GPGGA,170927.000,4217.9738,N,07121.1044,W,2,07,1.71,66.4,M,-33.8,M,0000,0000*67
2024-01-17T12:09:27.495 $GPGSA,A,3,26,04,31,28,09,16,07,,,,,,2.11,1.71,1.24*01
2024-01-17T12:09:27.556 $GPGSV,3,1,11,16,77,027,36,04,64,245,33,26,48,056,22,09,39,303,28*7B
2024-01-17T12:09:27.637 $GPGSV,3,2,11,31,33,103,33,08,20,191,27,46,14,247,34,28,10,110,19*7C
2024-01-17T12:09:27.698 $GPGSV,3,3,11,07,08,296,29,18,08,069,18,03,02,221,16*40
2024-01-17T12:09:27.759 $GPRMC,170927.000,A,4217.9738,N,07121.1044,W,0.87,340.25,170124,,,D*7C
2024-01-17T12:09:27.964 $GPVTG,340.25,T,,M,0.87,N,1.62,K,D*32
2024-01-17T12:09:28.485 $GPGGA,170928.000,4217.9742,N,07121.1046,W,2,07,1.70,66.6,M,-33.8,M,0000,0000*64
2024-01-17T12:09:28.545 $GPGSA,A,3,26,04,31,28,09,16,07,,,,,,1.87,1.70,0.78*04
2024-01-17T12:09:28.606 $GPRMC,170928.000,A,4217.9742,N,07121.1046,W,0.78,352.87,170124,,,D*77
2024-01-17T12:09:28.805 $GPVTG,352.87,T,,M,0.78,N,1.44,K,D*3D
2024-01-17T12:09:29.424 $GPGGA,170929.000,4217.9748,N,07121.1046,W,2,07,1.71,66.6,M,-33.8,M,0000,0000*6E
2024-01-17T12:09:29.493 $GPGSA,A,3,26,04,31,28,09,16,07,,,,,,2.11,1.71,1.24*01
2024-01-17T12:09:29.574 $GPRMC,170929.000,A,4217.9748,N,07121.1046,W,0.91,359.47,170124,,,D*7C
2024-01-17T12:09:29.648 $GPVTG,359.47,T,,M,0.91,N,1.69,K,D*32
2024-01-17T12:09:30.422 $GPGGA,170930.000,4217.9750,N,07121.1047,W,2,07,1.71,66.5,M,-33.8,M,0000,0000*6D
2024-01-17T12:09:30.483 $GPGSA,A,3,26,04,31,28,09,16,07,,,,,,2.11,1.71,1.24*01
2024-01-17T12:09:30.565 $GPRMC,170930.000,A,4217.9750,N,07121.1047,W,0.87,357.92,170124,,,D*7D
2024-01-17T12:09:30.608 $GPVTG,357.92,T,,M,0.87,N,1.61,K,D*3B
2024-01-17T12:09:31.486 $GPGGA,170931.000,4217.9755,N,07121.1047,W,2,07,1.71,66.5,M,-33.8,M,0000,0000*69
2024-01-17T12:09:31.547 $GPGSA,A,3,26,04,31,28,09,16,07,,,,,,2.11,1.71,1.24*01
2024-01-17T12:09:31.631 $GPRMC,170931.000,A,4217.9755,N,07121.1047,W,0.91,349.11,170124,,,D*7A
2024-01-17T12:09:31.685 $GPVTG,349.11,T,,M,0.91,N,1.69,K,D*30
2024-01-17T12:09:32.452 $GPGGA,170932.000,4217.9758,N,07121.1048,W,2,07,1.71,66.4,M,-33.8,M,0000,0000*69
2024-01-17T12:09:32.492 $GPGSA,A,3,26,04,31,28,09,16,07,,,,,,2.11,1.71,1.24*01
2024-01-17T12:09:32.574 $GPGSV,3,1,11,16,76,027,34,04,64,245,30,26,48,056,19,09,39,303,25*7E
2024-01-17T12:09:32.635 $GPGSV,3,2,11,31,33,103,28,08,20,191,25,46,14,247,33,28,10,110,22*7B
2024-01-17T12:09:32.705 $GPGSV,3,3,11,07,08,296,24,18,08,069,16,03,02,221,13*46
2024-01-17T12:09:32.788 $GPRMC,170932.000,A,4217.9758,N,07121.1048,W,0.95,345.39,170124,,,D*79
2024-01-17T12:09:32.846 $GPVTG,345.39,T,,M,0.95,N,1.76,K,D*3C
2024-01-17T12:09:33.408 $GPGGA,170933.000,4217.9760,N,07121.1050,W,2,07,1.71,66.4,M,-33.8,M,0000,0000*6A
2024-01-17T12:09:33.468 $GPGSA,A,3,26,04,31,28,09,16,07,,,,,,2.11,1.71,1.24*01
2024-01-17T12:09:33.550 $GPRMC,170933.000,A,4217.9760,N,07121.1050,W,0.77,332.69,170124,,,D*73
2024-01-17T12:09:33.598 $GPVTG,332.69,T,,M,0.77,N,1.43,K,D*33
2024-01-17T12:09:34.416 $GPGGA,170934.000,4217.9763,N,07121.1051,W,2,07,1.70,66.4,M,-33.8,M,0000,0000*6E
2024-01-17T12:09:34.475 $GPGSA,A,3,26,04,31,28,09,16,07,,,,,,1.87,1.70,0.78*04
2024-01-17T12:09:34.537 $GPRMC,170934.000,A,4217.9763,N,07121.1051,W,0.76,323.77,170124,,,D*78
2024-01-17T12:09:34.588 $GPVTG,323.77,T,,M,0.76,N,1.40,K,D*3E
2024-01-17T12:09:35.482 $GPGGA,170935.000,4217.9763,N,07121.1050,W,2,07,1.70,66.3,M,-33.8,M,0000,0000*69
2024-01-17T12:09:35.553 $GPGSA,A,3,26,04,31,28,09,16,07,,,,,,1.87,1.70,0.78*04
2024-01-17T12:09:35.616 $GPRMC,170935.000,A,4217.9763,N,07121.1050,W,0.40,322.26,170124,,,D*78
2024-01-17T12:09:35.690 $GPVTG,322.26,T,,M,0.40,N,0.73,K,D*3F
2024-01-17T12:09:36.430 $GPGGA,170936.000,4217.9768,N,07121.1048,W,2,07,1.70,66.3,M,-33.8,M,0000,0000*68
2024-01-17T12:09:36.480 $GPGSA,A,3,26,04,31,28,09,16,07,,,,,,1.87,1.70,0.78*04
2024-01-17T12:09:36.553 $GPRMC,170936.000,A,4217.9768,N,07121.1048,W,0.42,338.94,170124,,,D*79
2024-01-17T12:09:36.610 $GPVTG,338.94,T,,M,0.42,N,0.79,K,D*35
2024-01-17T12:09:37.421 $GPGGA,170937.000,4217.9771,N,07121.1049,W,2,07,1.70,66.7,M,-33.8,M,0000,0000*64
2024-01-17T12:09:37.481 $GPGSA,A,3,26,04,31,28,09,16,07,,,,,,1.87,1.70,0.78*04
2024-01-17T12:09:37.562 $GPGSV,3,1,11,16,76,027,35,04,64,245,33,26,48,056,18,09,39,303,33*7A
2024-01-17T12:09:37.632 $GPGSV,3,2,11,31,33,103,17,08,20,191,27,46,14,247,34,28,10,110,29*79
2024-01-17T12:09:37.694 $GPGSV,3,3,11,07,08,296,23,18,08,069,15,03,02,221,13*42
2024-01-17T12:09:37.773 $GPRMC,170937.000,A,4217.9771,N,07121.1049,W,0.30,341.13,170124,,,D*75
2024-01-17T12:09:37.817 $GPVTG,341.13,T,,M,0.30,N,0.55,K,D*3F
2024-01-17T12:09:38.416 $GPGGA,170938.000,4217.9777,N,07121.1047,W,2,07,1.70,67.0,M,-33.8,M,0000,0000*65
2024-01-17T12:09:38.476 $GPGSA,A,3,26,04,31,28,09,16,07,,,,,,1.87,1.70,0.78*04
2024-01-17T12:09:38.535 $GPRMC,170938.000,A,4217.9777,N,07121.1047,W,0.25,18.57,170124,,,D*49
2024-01-17T12:09:38.790 $GPVTG,18.57,T,,M,0.25,N,0.46,K,D*06
2024-01-17T12:09:39.466 $GPGGA,170939.000,4217.9777,N,07121.1046,W,2,06,1.77,66.9,M,-33.8,M,0000,0000*6B
2024-01-17T12:09:39.527 $GPGSA,A,3,26,04,31,28,09,16,,,,,,,1.98,1.77,0.89*04
2024-01-17T12:09:39.609 $GPRMC,170939.000,A,4217.9777,N,07121.1046,W,0.20,54.00,170124,,,D*46
2024-01-17T12:09:39.650 $GPVTG,54.00,T,,M,0.20,N,0.38,K,D*00
2024-01-17T12:09:40.476 $GPGGA,170940.000,4217.9778,N,07121.1046,W,2,07,1.70,66.9,M,-33.8,M,0000,0000*6C
2024-01-17T12:09:40.537 $GPGSA,A,3,26,04,31,28,09,16,07,,,,,,1.87,1.70,0.78*04
2024-01-17T12:09:40.620 $GPRMC,170940.000,A,4217.9778,N,07121.1046,W,0.17,30.49,170124,,,D*4C
2024-01-17T12:09:40.665 $GPVTG,30.49,T,,M,0.17,N,0.31,K,D*02
2024-01-17T12:09:41.405 $GPGGA,170941.000,4217.9778,N,07121.1045,W,2,07,1.70,66.9,M,-33.8,M,0000,0000*6E
2024-01-17T12:09:41.466 $GPGSA,A,3,26,04,31,28,09,16,07,,,,,,1.87,1.70,0.78*04
2024-01-17T12:09:41.526 $GPRMC,170941.000,A,4217.9778,N,07121.1045,W,0.05,151.60,170124,,,D*70
2024-01-17T12:09:41.593 $GPVTG,151.60,T,,M,0.05,N,0.09,K,D*37
2024-01-17T12:09:42.422 $GPGGA,170942.000,4217.9778,N,07121.1045,W,2,07,1.70,66.9,M,-33.8,M,0000,0000*6D
2024-01-17T12:09:42.493 $GPGSA,A,3,26,04,31,28,09,16,07,,,,,,1.87,1.70,0.78*04
2024-01-17T12:09:42.556 $GPGSV,3,1,11,16,76,027,34,04,64,245,35,26,48,057,22,09,39,303,36*70
2024-01-17T12:09:42.636 $GPGSV,3,2,11,31,33,103,20,08,20,191,28,46,14,247,35,28,10,111,25*7E
2024-01-17T12:09:42.699 $GPGSV,3,3,11,07,08,296,21,18,08,069,16,03,02,221,15*45
2024-01-17T12:09:42.759 $GPRMC,170942.000,A,4217.9778,N,07121.1045,W,0.37,329.63,170124,,,D*7C
2024-01-17T12:09:42.813 $GPVTG,329.63,T,,M,0.37,N,0.69,K,D*3E
2024-01-17T12:09:43.412 $GPGGA,170943.000,4217.9779,N,07121.1046,W,2,07,1.70,66.9,M,-33.8,M,0000,0000*6E
2024-01-17T12:09:43.483 $GPGSA,A,3,26,04,31,28,09,16,07,,,,,,1.87,1.70,0.78*04
2024-01-17T12:09:43.564 $GPRMC,170943.000,A,4217.9779,N,07121.1046,W,0.29,67.79,170124,,,D*42
2024-01-17T12:09:43.622 $GPVTG,67.79,T,,M,0.29,N,0.54,K,D*0D
2024-01-17T12:09:44.458 $GPGGA,170944.000,4217.9780,N,07121.1045,W,2,07,1.70,66.9,M,-33.8,M,0000,0000*6C
2024-01-17T12:09:44.507 $GPGSA,A,3,26,04,31,28,09,16,07,,,,,,1.87,1.70,0.78*04
2024-01-17T12:09:44.589 $GPRMC,170944.000,A,4217.9780,N,07121.1045,W,0.33,356.68,170124,,,D*7A
2024-01-17T12:09:44.631 $GPVTG,356.68,T,,M,0.33,N,0.61,K,D*31
2024-01-17T12:09:45.365 $GPGGA,170945.000,4217.9781,N,07121.1045,W,2,07,1.70,66.9,M,-33.8,M,0000,0000*6C
2024-01-17T12:09:45.426 $GPGSA,A,3,26,04,31,28,09,16,07,,,,,,2.11,1.70,1.24*00
2024-01-17T12:09:45.508 $GPRMC,170945.000,A,4217.9781,N,07121.1045,W,0.24,37.28,170124,,,D*4C
2024-01-17T12:09:45.550 $GPVTG,37.28,T,,M,0.24,N,0.44,K,D*00
2024-01-17T12:09:46.419 $GPGGA,170946.000,4217.9781,N,07121.1044,W,2,07,1.70,66.9,M,-33.8,M,0000,0000*6E
2024-01-17T12:09:46.490 $GPGSA,A,3,26,04,31,28,09,16,07,,,,,,1.87,1.70,0.78*04
2024-01-17T12:09:46.551 $GPRMC,170946.000,A,4217.9781,N,07121.1044,W,0.49,43.59,170124,,,D*40
2024-01-17T12:09:46.670 $GPVTG,43.59,T,,M,0.49,N,0.92,K,D*05
2024-01-17T12:09:47.409 $GPGGA,170947.000,4217.9783,N,07121.1043,W,2,06,1.77,66.9,M,-33.8,M,0000,0000*6C
2024-01-17T12:09:47.480 $GPGSA,A,3,26,04,31,28,09,16,,,,,,,1.98,1.77,0.89*04
2024-01-17T12:09:47.541 $GPGSV,3,1,11,16,76,027,30,04,64,245,28,26,48,057,18,09,39,303,39*7E
2024-01-17T12:09:47.622 $GPGSV,3,2,11,31,33,103,17,08,20,191,29,46,14,247,33,28,10,111,20*78
2024-01-17T12:09:47.683 $GPGSV,3,3,11,07,08,296,19,18,08,069,15,03,02,221,14*4C
2024-01-17T12:09:47.754 $GPRMC,170947.000,A,4217.9783,N,07121.1043,W,1.52,352.01,170124,,,D*71
2024-01-17T12:09:47.794 $GPVTG,352.01,T,,M,1.52,N,2.82,K,D*33
2024-01-17T12:09:48.470 $GPGGA,170948.000,4217.9786,N,07121.1045,W,2,06,1.85,66.8,M,-33.8,M,0000,0000*6C
2024-01-17T12:09:48.521 $GPGSA,A,3,26,04,31,28,09,16,,,,,,,2.72,1.85,1.99*0E
2024-01-17T12:09:48.592 $GPRMC,170948.000,A,4217.9786,N,07121.1045,W,1.39,344.83,170124,,,D*7D
2024-01-17T12:09:48.814 $GPVTG,344.83,T,,M,1.39,N,2.58,K,D*34
2024-01-17T12:09:49.461 $GPGGA,170949.000,4217.9798,N,07121.1040,W,2,07,1.70,66.9,M,-33.8,M,0000,0000*6D
2024-01-17T12:09:49.522 $GPGSA,A,3,26,04,31,28,09,16,07,,,,,,1.87,1.70,0.78*04
2024-01-17T12:09:49.602 $GPRMC,170949.000,A,4217.9798,N,07121.1040,W,1.29,2.54,170124,,,D*7C
2024-01-17T12:09:49.651 $GPVTG,2.54,T,,M,1.29,N,2.39,K,D*39
2024-01-17T12:09:50.416 $GPGGA,170950.000,4217.9802,N,07121.1045,W,2,07,1.70,67.2,M,-33.8,M,0000,0000*66
2024-01-17T12:09:50.488 $GPGSA,A,3,26,04,31,28,09,16,07,,,,,,2.11,1.70,1.24*00
2024-01-17T12:09:50.549 $GPRMC,170950.000,A,4217.9802,N,07121.1045,W,1.09,7.09,170124,,,D*72
2024-01-17T12:09:50.734 $GPVTG,7.09,T,,M,1.09,N,2.02,K,D*3E
2024-01-17T12:09:51.432 $GPGGA,170951.000,4217.9808,N,07121.1045,W,2,07,1.70,67.3,M,-33.8,M,0000,0000*6C
2024-01-17T12:09:51.494 $GPGSA,A,3,26,04,31,28,09,16,07,,,,,,2.11,1.70,1.24*00
2024-01-17T12:09:51.554 $GPRMC,170951.000,A,4217.9808,N,07121.1045,W,1.13,24.40,170124,,,D*4E
2024-01-17T12:09:51.786 $GPVTG,24.40,T,,M,1.13,N,2.10,K,D*0A
2024-01-17T12:09:52.463 $GPGGA,170952.000,4217.9816,N,07121.1050,W,2,06,1.76,67.5,M,-33.8,M,0000,0000*65
2024-01-17T12:09:52.533 $GPGSA,A,3,26,04,31,28,09,16,,,,,,,1.98,1.76,0.89*05
2024-01-17T12:09:52.614 $GPGSV,3,1,11,16,76,027,27,04,64,245,31,26,48,057,20,09,39,303,40*75
2024-01-17T12:09:52.674 $GPGSV,3,2,11,31,33,103,22,08,20,191,30,46,14,247,35,28,10,111,35*74
2024-01-17T12:09:52.735 $GPGSV,3,3,11,07,08,296,17,18,08,069,15,03,02,221,18*4E
2024-01-17T12:09:52.816 $GPRMC,170952.000,A,4217.9816,N,07121.1050,W,1.44,357.24,170124,,,D*71
2024-01-17T12:09:52.859 $GPVTG,357.24,T,,M,1.44,N,2.67,K,D*3D
2024-01-17T12:09:53.406 $GPGGA,170953.000,4217.9819,N,07121.1058,W,2,06,1.85,67.7,M,-33.8,M,0000,0000*6D
2024-01-17T12:09:53.477 $GPGSA,A,3,26,04,31,28,09,16,,,,,,,2.72,1.85,1.99*0E
2024-01-17T12:09:53.548 $GPRMC,170953.000,A,4217.9819,N,07121.1058,W,1.25,359.36,170124,,,D*7D
2024-01-17T12:09:53.593 $GPVTG,359.36,T,,M,1.25,N,2.32,K,D*37
2024-01-17T12:09:54.435 $GPGGA,170954.000,4217.9824,N,07121.1062,W,2,07,1.70,67.8,M,-33.8,M,0000,0000*69
2024-01-17T12:09:54.485 $GPGSA,A,3,26,04,31,28,09,16,07,,,,,,2.11,1.70,1.24*00
2024-01-17T12:09:54.566 $GPRMC,170954.000,A,4217.9824,N,07121.1062,W,1.28,7.03,170124,,,D*7E
2024-01-17T12:09:54.610 $GPVTG,7.03,T,,M,1.28,N,2.37,K,D*31
2024-01-17T12:09:55.410 $GPGGA,170955.000,4217.9825,N,07121.1071,W,2,06,1.85,67.9,M,-33.8,M,0000,0000*61
2024-01-17T12:09:55.470 $GPGSA,A,3,26,04,31,28,09,16,,,,,,,2.72,1.85,2.00*0D
2024-01-17T12:09:55.540 $GPRMC,170955.000,A,4217.9825,N,07121.1071,W,1.35,349.19,170124,,,D*72
2024-01-17T12:09:55.585 $GPVTG,349.19,T,,M,1.35,N,2.50,K,D*3E
2024-01-17T12:09:56.480 $GPGGA,170956.000,4217.9827,N,07121.1082,W,2,07,1.70,68.2,M,-33.8,M,0000,0000*63
2024-01-17T12:09:56.541 $GPGSA,A,3,26,04,31,28,09,16,07,,,,,,2.11,1.70,1.24*00
2024-01-17T12:09:56.612 $GPRMC,170956.000,A,4217.9827,N,07121.1082,W,1.32,346.50,170124,,,D*7A
2024-01-17T12:09:56.655 $GPVTG,346.50,T,,M,1.32,N,2.44,K,D*3E
2024-01-17T12:09:57.421 $GPGGA,170957.000,4217.9822,N,07121.1093,W,2,06,1.85,68.3,M,-33.8,M,0000,0000*6D
2024-01-17T12:09:57.482 $GPGSA,A,3,26,04,31,28,09,16,,,,,,,2.72,1.85,2.00*0D
2024-01-17T12:09:57.553 $GPGSV,3,1,11,16,76,027,27,04,64,245,28,26,48,057,22,09,39,303,40*7F
2024-01-17T12:09:57.635 $GPGSV,3,2,11,31,33,103,24,08,21,191,33,46,14,247,31,28,10,111,29*79
2024-01-17T12:09:57.696 $GPGSV,3,3,11,07,08,296,18,18,08,069,18,03,02,221,16*42
2024-01-17T12:09:57.757 $GPRMC,170957.000,A,4217.9822,N,07121.1093,W,0.86,357.99,170124,,,D*75
2024-01-17T12:09:57.980 $GPVTG,357.99,T,,M,0.86,N,1.59,K,D*3A
2024-01-17T12:09:58.397 $GPGGA,170958.000,4217.9823,N,07121.1097,W,2,07,1.70,68.3,M,-33.8,M,0000,0000*6C
2024-01-17T12:09:58.482 $GPGSA,A,3,26,04,31,28,09,16,07,,,,,,2.10,1.70,1.24*01
2024-01-17T12:09:58.543 $GPRMC,170958.000,A,4217.9823,N,07121.1097,W,0.70,5.87,170124,,,D*7D
2024-01-17T12:09:58.591 $GPVTG,5.87,T,,M,0.70,N,1.29,K,D*3F
2024-01-17T12:09:59.421 $GPGGA,170959.000,4217.9826,N,07121.1102,W,2,07,1.70,68.4,M,-33.8,M,0000,0000*62
2024-01-17T12:09:59.482 $GPGSA,A,3,26,04,31,28,09,16,07,,,,,,2.10,1.70,1.24*01
2024-01-17T12:09:59.563 $GPRMC,170959.000,A,4217.9826,N,07121.1102,W,0.78,16.53,170124,,,D*47
2024-01-17T12:09:59.606 $GPVTG,16.53,T,,M,0.78,N,1.45,K,D*06
2024-01-17T12:10:00.415 $GPGGA,171000.000,4217.9832,N,07121.1117,W,2,06,1.76,69.0,M,-33.8,M,0000,0000*65
2024-01-17T12:10:00.476 $GPGSA,A,3,26,04,31,28,09,16,,,,,,,1.97,1.76,0.89*0A
2024-01-17T12:10:00.536 $GPRMC,171000.000,A,4217.9832,N,07121.1117,W,0.93,28.46,170124,,,D*4E
2024-01-17T12:10:00.792 $GPVTG,28.46,T,,M,0.93,N,1.73,K,D*0F
2024-01-17T12:10:01.432 $GPGGA,171001.000,4217.9831,N,07121.1125,W,2,06,1.76,69.1,M,-33.8,M,0000,0000*67
2024-01-17T12:10:01.503 $GPGSA,A,3,26,04,31,28,09,16,,,,,,,1.97,1.76,0.89*0A
2024-01-17T12:10:01.563 $GPRMC,171001.000,A,4217.9831,N,07121.1125,W,0.72,22.78,170124,,,D*45
2024-01-17T12:10:01.622 $GPVTG,22.78,T,,M,0.72,N,1.33,K,D*03
2024-01-17T12:10:02.468 $GPGGA,171002.000,4217.9824,N,07121.1136,W,2,06,1.76,69.1,M,-33.8,M,0000,0000*62
2024-01-17T12:10:02.527 $GPGSA,A,3,26,04,31,28,09,16,,,,,,,1.97,1.76,0.89*0A
2024-01-17T12:10:02.607 $GPGSV,3,1,11,16,76,027,29,04,64,245,34,26,48,057,24,09,39,303,35*78
2024-01-17T12:10:02.669 $GPGSV,3,2,11,31,33,103,26,08,21,191,32,46,14,247,38,28,10,111,37*7C
2024-01-17T12:10:02.730 $GPGSV,3,3,11,07,08,296,16,18,08,069,16,03,02,221,17*43
2024-01-17T12:10:02.812 $GPRMC,171002.000,A,4217.9824,N,07121.1136,W,0.35,38.30,170124,,,D*44
2024-01-17T12:10:02.866 $GPVTG,38.30,T,,M,0.35,N,0.65,K,D*05
2024-01-17T12:10:03.463 $GPGGA,171003.000,4217.9823,N,07121.1141,W,2,06,1.76,69.5,M,-33.8,M,0000,0000*60
2024-01-17T12:10:03.512 $GPGSA,A,3,26,04,31,28,09,16,,,,,,,1.97,1.76,0.89*0A
2024-01-17T12:10:03.594 $GPRMC,171003.000,A,4217.9823,N,07121.1141,W,0.27,29.49,170124,,,D*4F
2024-01-17T12:10:03.647 $GPVTG,29.49,T,,M,0.27,N,0.49,K,D*06
2024-01-17T12:10:04.422 $GPGGA,171004.000,4217.9816,N,07121.1155,W,2,07,1.69,69.7,M,-33.8,M,0000,0000*69
2024-01-17T12:10:04.493 $GPGSA,A,3,26,04,31,28,09,16,07,,,,,,1.86,1.69,0.78*0D
2024-01-17T12:10:04.554 $GPRMC,171004.000,A,4217.9816,N,07121.1155,W,0.19,76.93,170124,,,D*4B
2024-01-17T12:10:04.791 $GPVTG,76.93,T,,M,0.19,N,0.35,K,D*0D
2024-01-17T12:10:05.479 $GPGGA,171005.000,4217.9814,N,07121.1162,W,2,07,1.69,70.0,M,-33.8,M,0000,0000*61
2024-01-17T12:10:05.529 $GPGSA,A,3,26,04,31,28,09,16,07,,,,,,1.86,1.69,0.78*0D
2024-01-17T12:10:05.610 $GPRMC,171005.000,A,4217.9814,N,07121.1162,W,0.16,126.91,170124,,,D*75
2024-01-17T12:10:05.660 $GPVTG,126.91,T,,M,0.16,N,0.30,K,D*31
2024-01-17T12:10:06.420 $GPGGA,171006.000,4217.9814,N,07121.1161,W,2,06,1.76,69.9,M,-33.8,M,0000,0000*6F
2024-01-17T12:10:06.492 $GPGSA,A,3,26,04,31,28,09,16,,,,,,,1.97,1.76,0.89*0A
2024-01-17T12:10:06.572 $GPRMC,171006.000,A,4217.9814,N,07121.1161,W,0.12,226.14,170124,,,D*7F
2024-01-17T12:10:06.623 $GPVTG,226.14,T,,M,0.12,N,0.22,K,D*38
2024-01-17T12:10:07.434 $GPGGA,171007.000,4217.9814,N,07121.1162,W,2,07,1.69,69.9,M,-33.8,M,0000,0000*62
2024-01-17T12:10:07.496 $GPGSA,A,3,26,04,31,28,09,16,07,,,,,,1.86,1.69,0.78*0D
2024-01-17T12:10:07.554 $GPGSV,3,1,11,16,76,028,32,04,64,245,34,26,48,057,32,09,39,303,33*7C
2024-01-17T12:10:07.636 $GPGSV,3,2,11,31,33,103,27,08,21,191,31,46,14,247,37,28,10,111,35*73
2024-01-17T12:10:07.707 $GPGSV,3,3,11,07,08,296,15,18,08,069,15,03,02,221,17*43
2024-01-17T12:10:07.768 $GPRMC,171007.000,A,4217.9814,N,07121.1162,W,0.13,210.97,170124,,,D*72
2024-01-17T12:10:07.844 $GPVTG,210.97,T,,M,0.13,N,0.25,K,D*30
2024-01-17T12:10:08.473 $GPGGA,171008.000,4217.9813,N,07121.1162,W,2,07,1.69,69.9,M,-33.8,M,0000,0000*6A
2024-01-17T12:10:08.533 $GPGSA,A,3,26,04,31,28,09,16,07,,,,,,1.86,1.69,0.78*0D
2024-01-17T12:10:08.603 $GPRMC,171008.000,A,4217.9813,N,07121.1162,W,0.19,138.32,170124,,,D*76
2024-01-17T12:10:08.646 $GPVTG,138.32,T,,M,0.19,N,0.35,K,D*3D
2024-01-17T12:10:09.467 $GPGGA,171009.000,4217.9813,N,07121.1162,W,2,07,1.69,69.8,M,-33.8,M,0000,0000*6A
2024-01-17T12:10:09.528 $GPGSA,A,3,26,04,31,28,09,16,07,,,,,,1.86,1.69,0.78*0D
2024-01-17T12:10:09.608 $GPRMC,171009.000,A,4217.9813,N,07121.1162,W,0.28,94.05,170124,,,D*46
2024-01-17T12:10:09.658 $GPVTG,94.05,T,,M,0.28,N,0.53,K,D*0C
2024-01-17T12:10:10.470 $GPGGA,171010.000,4217.9813,N,07121.1161,W,2,07,1.69,69.8,M,-33.8,M,0000,0000*61
2024-01-17T12:10:10.531 $GPGSA,A,3,26,04,31,28,09,16,07,,,,,,1.86,1.69,0.78*0D
2024-01-17T12:10:10.613 $GPRMC,171010.000,A,4217.9813,N,07121.1161,W,0.17,95.40,170124,,,D*41
2024-01-17T12:10:10.663 $GPVTG,95.40,T,,M,0.17,N,0.32,K,D*07
2024-01-17T12:10:11.425 $GPGGA,171011.000,4217.9813,N,07121.1160,W,2,07,1.69,69.8,M,-33.8,M,0000,0000*61
2024-01-17T12:10:11.495 $GPGSA,A,3,26,04,31,28,09,16,07,,,,,,1.86,1.69,0.78*0D
2024-01-17T12:10:11.556 $GPRMC,171011.000,A,4217.9813,N,07121.1160,W,0.43,193.66,170124,,,D*73
2024-01-17T12:10:11.626 $GPVTG,193.66,T,,M,0.43,N,0.80,K,D*3C
2024-01-17T12:10:12.416 $GPGGA,171012.000,4217.9812,N,07121.1161,W,2,07,1.69,69.8,M,-33.8,M,0000,0000*62
2024-01-17T12:10:12.466 $GPGSA,A,3,26,04,31,28,09,16,07,,,,,,1.86,1.69,0.78*0D
2024-01-17T12:10:12.548 $GPGSV,3,1,11,16,76,028,27,04,64,245,31,26,48,057,38,09,39,303,18*7E
2024-01-17T12:10:12.629 $GPGSV,3,2,11,31,33,103,34,08,21,191,25,46,14,247,40,28,10,111,25*75
2024-01-17T12:10:12.680 $GPGSV,3,3,11,07,08,296,16,18,08,069,15,03,02,221,16*41
2024-01-17T12:10:12.761 $GPRMC,171012.000,A,4217.9812,N,07121.1161,W,0.33,184.11,170124,,,D*71
2024-01-17T12:10:12.804 $GPVTG,184.11,T,,M,0.33,N,0.61,K,D*32
2024-01-17T12:10:13.471 $GPGGA,171013.000,4217.9811,N,07121.1161,W,2,07,1.69,69.8,M,-33.8,M,0000,0000*60
2024-01-17T12:10:13.523 $GPGSA,A,3,26,04,31,28,09,16,07,,,,,,1.86,1.69,0.78*0D
2024-01-17T12:10:13.603 $GPRMC,171013.000,A,4217.9811,N,07121.1161,W,0.30,164.66,170124,,,D*7E
2024-01-17T12:10:13.657 $GPVTG,164.66,T,,M,0.30,N,0.55,K,D*38
2024-01-17T12:10:14.417 $GPGGA,171014.000,4217.9810,N,07121.1161,W,2,07,1.69,69.8,M,-33.8,M,0000,0000*66
2024-01-17T12:10:14.469 $GPGSA,A,3,26,04,31,28,09,16,07,,,,,,1.86,1.69,0.78*0D
2024-01-17T12:10:14.549 $GPRMC,171014.000,A,4217.9810,N,07121.1161,W,0.46,129.83,170124,,,D*7B
2024-01-17T12:10:14.610 $GPVTG,129.83,T,,M,0.46,N,0.84,K,D*37
2024-01-17T12:10:15.415 $GPGGA,171015.000,4217.9809,N,07121.1160,W,2,07,1.69,69.8,M,-33.8,M,0000,0000*6E
2024-01-17T12:10:15.476 $GPGSA,A,3,26,04,31,28,09,16,07,,,,,,1.86,1.69,0.78*0D
2024-01-17T12:10:15.537 $GPRMC,171015.000,A,4217.9809,N,07121.1160,W,0.50,143.46,170124,,,D*71
2024-01-17T12:10:15.597 $GPVTG,143.46,T,,M,0.50,N,0.93,K,D*33
2024-01-17T12:10:16.404 $GPGGA,171016.000,4217.9808,N,07121.1159,W,2,07,1.69,69.8,M,-33.8,M,0000,0000*66
2024-01-17T12:10:16.466 $GPGSA,A,3,26,04,31,28,09,16,07,,,,,,1.86,1.69,0.78*0D
2024-01-17T12:10:16.526 $GPRMC,171016.000,A,4217.9808,N,07121.1159,W,0.34,148.84,170124,,,D*7E
2024-01-17T12:10:16.596 $GPVTG,148.84,T,,M,0.34,N,0.63,K,D*3B
2024-01-17T12:10:17.478 $GPGGA,171017.000,4217.9807,N,07121.1158,W,2,07,1.69,69.8,M,-33.8,M,0000,0000*69
2024-01-17T12:10:17.539 $GPGSA,A,3,26,04,31,28,09,16,07,,,,,,1.86,1.69,0.78*0D
2024-01-17T12:10:17.620 $GPGSV,3,1,11,16,76,028,28,04,64,245,32,26,48,057,25,09,39,303,21*74
2024-01-17T12:10:17.680 $GPGSV,3,2,11,31,33,103,28,08,21,191,27,46,14,247,42,28,09,111,30*74
2024-01-17T12:10:17.741 $GPGSV,3,3,11,07,08,296,16,18,08,069,16,03,02,221,13*47
2024-01-17T12:10:17.822 $GPRMC,171017.000,A,4217.9807,N,07121.1158,W,0.43,150.61,170124,,,D*73
2024-01-17T12:10:17.864 $GPVTG,150.61,T,,M,0.43,N,0.80,K,D*34
2024-01-17T12:10:18.418 $GPGGA,171018.000,4217.9806,N,07121.1158,W,2,07,1.69,69.8,M,-33.8,M,0000,0000*67
2024-01-17T12:10:18.479 $GPGSA,A,3,26,04,31,28,09,16,07,,,,,,1.86,1.69,0.78*0D
2024-01-17T12:10:18.550 $GPRMC,171018.000,A,4217.9806,N,07121.1158,W,0.51,146.98,170124,,,D*7F
2024-01-17T12:10:18.591 $GPVTG,146.98,T,,M,0.51,N,0.95,K,D*32
2024-01-17T12:10:19.443 $GPGGA,171019.000,4217.9805,N,07121.1157,W,2,07,1.68,69.8,M,-33.8,M,0000,0000*6B
2024-01-17T12:10:19.483 $GPGSA,A,3,26,04,31,28,09,16,07,,,,,,1.86,1.68,0.78*0C
2024-01-17T12:10:19.565 $GPRMC,171019.000,A,4217.9805,N,07121.1157,W,0.48,149.76,170124,,,D*75
2024-01-17T12:10:19.634 $GPVTG,149.76,T,,M,0.48,N,0.89,K,D*38
2024-01-17T12:10:20.414 $GPGGA,171020.000,4217.9804,N,07121.1156,W,2,07,1.68,69.8,M,-33.8,M,0000,0000*61
2024-01-17T12:10:20.464 $GPGSA,A,3,26,04,31,28,09,16,07,,,,,,1.86,1.68,0.78*0C
2024-01-17T12:10:20.545 $GPRMC,171020.000,A,4217.9804,N,07121.1156,W,0.79,175.08,170124,,,D*7B
2024-01-17T12:10:20.606 $GPVTG,175.08,T,,M,0.79,N,1.47,K,D*3F
2024-01-17T12:10:21.411 $GPGGA,171021.000,4217.9803,N,07121.1159,W,2,07,1.68,69.7,M,-33.8,M,0000,0000*67
2024-01-17T12:10:21.451 $GPGSA,A,3,26,04,31,28,09,16,07,,,,,,1.86,1.68,0.78*0C
2024-01-17T12:10:21.533 $GPRMC,171021.000,A,4217.9803,N,07121.1159,W,0.76,187.75,170124,,,D*7A
2024-01-17T12:10:21.599 $GPVTG,187.75,T,,M,0.76,N,1.41,K,D*31
2024-01-17T12:10:22.427 $GPGGA,171022.000,4217.9801,N,07121.1160,W,2,07,1.69,69.6,M,-33.8,M,0000,0000*6C
2024-01-17T12:10:22.478 $GPGSA,A,3,26,04,31,28,09,16,07,,,,,,1.86,1.69,0.78*0D
2024-01-17T12:10:22.560 $GPGSV,3,1,11,16,76,028,30,04,64,245,34,26,48,057,29,09,39,303,20*76
2024-01-17T12:10:22.641 $GPGSV,3,2,11,31,33,103,30,08,21,191,25,46,14,247,23,28,09,111,23*7A
2024-01-17T12:10:22.691 $GPGSV,3,3,11,07,08,296,18,18,08,069,15,03,02,221,14*4D
2024-01-17T12:10:22.762 $GPRMC,171022.000,A,4217.9801,N,07121.1160,W,0.81,186.56,170124,,,D*79
2024-01-17T12:10:22.829 $GPVTG,186.56,T,,M,0.81,N,1.50,K,D*39
2024-01-17T12:10:23.473 $GPGGA,171023.000,4217.9799,N,07121.1165,W,2,07,1.68,69.6,M,-33.8,M,0000,0000*67
2024-01-17T12:10:23.512 $GPGSA,A,3,26,04,31,28,09,16,07,,,,,,1.86,1.68,0.78*0C
2024-01-17T12:10:23.593 $GPRMC,171023.000,A,4217.9799,N,07121.1165,W,1.02,198.64,170124,,,D*77
2024-01-17T12:10:23.818 $GPVTG,198.64,T,,M,1.02,N,1.89,K,D*39
2024-01-17T12:10:24.459 $GPGGA,171024.000,4217.9797,N,07121.1168,W,2,07,1.68,69.6,M,-33.8,M,0000,0000*63
2024-01-17T12:10:24.520 $GPGSA,A,3,26,04,31,28,09,16,07,,,,,,1.86,1.68,0.78*0C
2024-01-17T12:10:24.602 $GPRMC,171024.000,A,4217.9797,N,07121.1168,W,1.09,210.50,170124,,,D*7C
2024-01-17T12:10:24.645 $GPVTG,210.50,T,,M,1.09,N,2.03,K,D*37
2024-01-17T12:10:25.416 $GPGGA,171025.000,4217.9793,N,07121.1172,W,2,07,1.68,69.6,M,-33.8,M,0000,0000*6D
2024-01-17T12:10:25.488 $GPGSA,A,3,26,04,31,28,09,16,07,,,,,,1.86,1.68,0.78*0C
2024-01-17T12:10:25.549 $GPRMC,171025.000,A,4217.9793,N,07121.1172,W,1.07,210.72,170124,,,D*7C
2024-01-17T12:10:25.600 $GPVTG,210.72,T,,M,1.07,N,1.98,K,D*38
2024-01-17T12:10:26.475 $GPGGA,171026.000,4217.9793,N,07121.1172,W,2,07,1.68,69.6,M,-33.8,M,0000,0000*6E
2024-01-17T12:10:26.526 $GPGSA,A,3,26,04,31,28,09,16,07,,,,,,1.85,1.68,0.78*0F
2024-01-17T12:10:26.606 $GPRMC,171026.000,A,4217.9793,N,07121.1172,W,0.91,208.88,170124,,,D*7D
2024-01-17T12:10:26.660 $GPVTG,208.88,T,,M,0.91,N,1.68,K,D*35
2024-01-17T12:10:27.416 $GPGGA,171027.000,4217.9788,N,07121.1175,W,2,07,1.68,69.4,M,-33.8,M,0000,0000*60
2024-01-17T12:10:27.467 $GPGSA,A,3,26,04,31,28,09,16,07,,,,,,1.85,1.68,0.78*0F
2024-01-17T12:10:27.548 $GPGSV,3,1,11,16,76,028,28,04,64,244,34,26,48,057,28,09,39,303,18*74
2024-01-17T12:10:27.608 $GPGSV,3,2,11,31,33,103,25,08,21,191,26,46,14,247,38,28,09,111,22*76
2024-01-17T12:10:27.669 $GPGSV,3,3,11,07,08,296,18,18,08,069,14,03,01,221,17*4C
2024-01-17T12:10:27.750 $GPRMC,171027.000,A,4217.9788,N,07121.1175,W,1.04,210.20,170124,,,D*77
2024-01-17T12:10:27.802 $GPVTG,210.20,T,,M,1.04,N,1.93,K,D*37
2024-01-17T12:10:28.381 $GPGGA,171028.000,4217.9784,N,07121.1177,W,2,07,1.68,69.4,M,-33.8,M,0000,0000*61
2024-01-17T12:10:28.442 $GPGSA,A,3,26,04,31,28,09,16,07,,,,,,1.85,1.68,0.78*0F
2024-01-17T12:10:28.523 $GPRMC,171028.000,A,4217.9784,N,07121.1177,W,1.09,208.09,170124,,,D*79
2024-01-17T12:10:28.578 $GPVTG,208.09,T,,M,1.09,N,2.02,K,D*33
2024-01-17T12:10:29.421 $GPGGA,171029.000,4217.9782,N,07121.1180,W,2,07,1.68,69.6,M,-33.8,M,0000,0000*6C
2024-01-17T12:10:29.482 $GPGSA,A,3,26,04,31,28,09,16,07,,,,,,1.85,1.68,0.78*0F
2024-01-17T12:10:29.563 $GPRMC,171029.000,A,4217.9782,N,07121.1180,W,1.07,206.12,170124,,,D*7C
2024-01-17T12:10:29.604 $GPVTG,206.12,T,,M,1.07,N,1.98,K,D*39
2024-01-17T12:10:30.474 $GPGGA,171030.000,4217.9780,N,07121.1184,W,2,07,1.68,69.7,M,-33.8,M,0000,0000*63
2024-01-17T12:10:30.534 $GPGSA,A,3,26,04,31,28,09,16,07,,,,,,1.85,1.68,0.78*0F
2024-01-17T12:10:30.595 $GPRMC,171030.000,A,4217.9780,N,07121.1184,W,1.10,207.31,170124,,,D*74
2024-01-17T12:10:30.842 $GPVTG,207.31,T,,M,1.10,N,2.05,K,D*38
2024-01-17T12:10:31.395 $GPGGA,171031.000,4217.9776,N,07121.1185,W,2,07,1.68,69.9,M,-33.8,M,0000,0000*64
2024-01-17T12:10:31.467 $GPGSA,A,3,26,04,31,28,09,16,07,,,,,,1.85,1.68,0.78*0F
2024-01-17T12:10:31.529 $GPRMC,171031.000,A,4217.9776,N,07121.1185,W,1.19,203.39,170124,,,D*78
2024-01-17T12:10:31.763 $GPVTG,203.39,T,,M,1.19,N,2.21,K,D*3B
2024-01-17T12:10:32.466 $GPGGA,171032.000,4217.9775,N,07121.1188,W,2,07,1.68,70.1,M,-33.8,M,0000,0000*69
2024-01-17T12:10:32.517 $GPGSA,A,3,26,04,31,28,09,16,07,,,,,,1.85,1.68,0.78*0F
2024-01-17T12:10:32.598 $GPGSV,3,1,11,16,76,028,28,04,64,244,26,26,48,057,21,09,39,303,16*70
2024-01-17T12:10:32.679 $GPGSV,3,2,11,31,33,103,24,08,21,191,28,46,14,247,41,28,09,111,20*75
2024-01-17T12:10:32.730 $GPGSV,3,3,11,07,08,296,17,18,08,069,13,03,01,221,15*46
2024-01-17T12:10:32.811 $GPRMC,171032.000,A,4217.9775,N,07121.1188,W,1.15,203.50,170124,,,D*76
2024-01-17T12:10:32.862 $GPVTG,203.50,T,,M,1.15,N,2.13,K,D*39
2024-01-17T12:10:33.474 $GPGGA,171033.000,4217.9785,N,07121.1198,W,2,07,1.68,70.4,M,-33.8,M,0000,0000*63
2024-01-17T12:10:33.526 $GPGSA,A,3,26,04,31,28,09,16,07,,,,,,1.85,1.68,0.78*0F
2024-01-17T12:10:33.608 $GPRMC,171033.000,A,4217.9785,N,07121.1198,W,0.90,229.34,170124,,,D*7F
2024-01-17T12:10:33.895 $GPVTG,229.34,T,,M,0.90,N,1.67,K,D*3F
2024-01-17T12:10:34.452 $GPGGA,171034.000,4217.9783,N,07121.1197,W,2,07,1.68,70.7,M,-33.8,M,0000,0000*6E
2024-01-17T12:10:34.514 $GPGSA,A,3,26,04,31,28,09,16,07,,,,,,1.85,1.68,0.78*0F
2024-01-17T12:10:34.595 $GPRMC,171034.000,A,4217.9783,N,07121.1197,W,0.76,209.38,170124,,,D*77
2024-01-17T12:10:34.637 $GPVTG,209.38,T,,M,0.76,N,1.40,K,D*3C
2024-01-17T12:10:35.395 $GPGGA,171035.000,4217.9785,N,07121.1201,W,2,07,1.68,70.8,M,-33.8,M,0000,0000*6A
2024-01-17T12:10:35.445 $GPGSA,A,3,26,04,31,28,09,16,07,,,,,,1.85,1.68,0.78*0F
2024-01-17T12:10:35.527 $GPRMC,171035.000,A,4217.9785,N,07121.1201,W,0.74,225.83,170124,,,D*70
2024-01-17T12:10:35.786 $GPVTG,225.83,T,,M,0.74,N,1.36,K,D*31
2024-01-17T12:10:36.376 $GPGGA,171036.000,4217.9784,N,07121.1209,W,2,07,1.68,71.0,M,-33.8,M,0000,0000*69
2024-01-17T12:10:36.436 $GPGSA,A,3,26,04,31,28,09,16,07,,,,,,1.85,1.68,0.78*0F
2024-01-17T12:10:36.518 $GPRMC,171036.000,A,4217.9784,N,07121.1209,W,1.01,237.86,170124,,,D*7F
2024-01-17T12:10:36.561 $GPVTG,237.86,T,,M,1.01,N,1.88,K,D*31
2024-01-17T12:10:37.397 $GPGGA,171037.000,4217.9786,N,07121.1211,W,2,07,1.68,71.2,M,-33.8,M,0000,0000*61
2024-01-17T12:10:37.457 $GPGSA,A,3,26,04,31,28,09,16,07,,,,,,1.85,1.68,0.78*0F
2024-01-17T12:10:37.528 $GPGSV,3,1,11,16,76,028,28,04,64,244,38,26,48,057,20,09,39,303,16*7E
2024-01-17T12:10:37.600 $GPGSV,3,2,11,31,33,103,28,08,21,191,32,46,14,247,34,28,09,111,19*7A
2024-01-17T12:10:37.673 $GPGSV,3,3,11,07,08,296,15,18,08,069,13,03,01,221,12*43
2024-01-17T12:10:37.734 $GPRMC,171037.000,A,4217.9786,N,07121.1211,W,0.73,220.65,170124,,,D*7A
2024-01-17T12:10:37.792 $GPVTG,220.65,T,,M,0.73,N,1.35,K,D*38
2024-01-17T12:10:38.464 $GPGGA,171038.000,4217.9787,N,07121.1216,W,2,07,1.68,71.4,M,-33.8,M,0000,0000*6E
2024-01-17T12:10:38.534 $GPGSA,A,3,26,04,31,28,09,16,07,,,,,,1.85,1.68,0.78*0F
2024-01-17T12:10:38.606 $GPRMC,171038.000,A,4217.9787,N,07121.1216,W,0.74,214.44,170124,,,D*70
2024-01-17T12:10:38.649 $GPVTG,214.44,T,,M,0.74,N,1.36,K,D*38
2024-01-17T12:10:39.394 $GPGGA,171039.000,4217.9788,N,07121.1223,W,2,07,1.68,71.4,M,-33.8,M,0000,0000*66
2024-01-17T12:10:39.455 $GPGSA,A,3,26,04,31,28,09,16,07,,,,,,1.85,1.68,0.78*0F
2024-01-17T12:10:39.536 $GPRMC,171039.000,A,4217.9788,N,07121.1223,W,0.96,238.81,170124,,,D*73
2024-01-17T12:10:39.585 $GPVTG,238.81,T,,M,0.96,N,1.78,K,D*39
2024-01-17T12:10:40.381 $GPGGA,171040.000,4217.9789,N,07121.1227,W,2,07,1.68,71.4,M,-33.8,M,0000,0000*6D
2024-01-17T12:10:40.453 $GPGSA,A,3,26,04,31,28,09,16,07,,,,,,1.85,1.68,0.78*0F
2024-01-17T12:10:40.525 $GPRMC,171040.000,A,4217.9789,N,07121.1227,W,0.83,241.20,170124,,,D*79
2024-01-17T12:10:40.569 $GPVTG,241.20,T,,M,0.83,N,1.55,K,D*37
2024-01-17T12:10:41.413 $GPGGA,171041.000,4217.9783,N,07121.1228,W,2,07,1.68,71.4,M,-33.8,M,0000,0000*69
2024-01-17T12:10:41.475 $GPGSA,A,3,26,04,31,28,09,16,07,,,,,,1.85,1.68,0.78*0F
2024-01-17T12:10:41.555 $GPRMC,171041.000,A,4217.9783,N,07121.1228,W,0.97,231.04,170124,,,D*79
2024-01-17T12:10:41.591 $GPVTG,231.04,T,,M,0.97,N,1.80,K,D*3B
2024-01-17T12:10:42.400 $GPGGA,171042.000,4217.9779,N,07121.1232,W,2,07,1.68,71.5,M,-33.8,M,0000,0000*65
2024-01-17T12:10:42.461 $GPGSA,A,3,26,04,31,28,09,16,07,,,,,,1.85,1.68,0.78*0F
2024-01-17T12:10:42.543 $GPGSV,3,1,11,16,76,028,19,04,64,244,35,26,48,057,24,09,39,303,18*7B
2024-01-17T12:10:42.605 $GPGSV,3,2,11,31,33,103,28,08,21,191,28,46,14,247,35,28,09,111,30*7B
2024-01-17T12:10:42.676 $GPGSV,3,3,11,18,09,069,15,07,08,296,18,03,01,221,15*4E
2024-01-17T12:10:42.748 $GPRMC,171042.000,A,4217.9779,N,07121.1232,W,1.07,218.84,170124,,,D*7F
2024-01-17T12:10:42.791 $GPVTG,218.84,T,,M,1.07,N,1.98,K,D*39
2024-01-17T12:10:43.423 $GPGGA,171043.000,4217.9776,N,07121.1235,W,2,07,1.68,71.5,M,-33.8,M,0000,0000*6C
2024-01-17T12:10:43.484 $GPGSA,A,3,26,04,31,28,09,16,07,,,,,,1.85,1.68,0.78*0F
2024-01-17T12:10:43.555 $GPRMC,171043.000,A,4217.9776,N,07121.1235,W,1.12,206.93,170124,,,D*7B
2024-01-17T12:10:43.597 $GPVTG,206.93,T,,M,1.12,N,2.07,K,D*31
2024-01-17T12:10:44.398 $GPGGA,171044.000,4217.9769,N,07121.1236,W,2,07,1.68,71.7,M,-33.8,M,0000,0000*64
2024-01-17T12:10:44.450 $GPGSA,A,3,26,04,31,28,09,16,07,,,,,,1.85,1.68,0.78*0F
2024-01-17T12:10:44.530 $GPRMC,171044.000,A,4217.9769,N,07121.1236,W,1.24,186.59,170124,,,D*79
2024-01-17T12:10:44.756 $GPVTG,186.59,T,,M,1.24,N,2.30,K,D*3D
2024-01-17T12:10:45.427 $GPGGA,171045.000,4217.9765,N,07121.1236,W,2,07,1.68,71.9,M,-33.8,M,0000,0000*67
2024-01-17T12:10:45.488 $GPGSA,A,3,26,04,31,28,09,16,07,,,,,,1.85,1.68,0.78*0F
2024-01-17T12:10:45.570 $GPRMC,171045.000,A,4217.9765,N,07121.1236,W,1.16,183.69,170124,,,D*73
2024-01-17T12:10:45.613 $GPVTG,183.69,T,,M,1.16,N,2.16,K,D*3E
2024-01-17T12:10:46.383 $GPGGA,171046.000,4217.9759,N,07121.1237,W,2,07,1.68,72.0,M,-33.8,M,0000,0000*60
2024-01-17T12:10:46.445 $GPGSA,A,3,26,04,31,28,09,16,07,,,,,,1.85,1.68,0.78*0F
2024-01-17T12:10:46.526 $GPRMC,171046.000,A,4217.9759,N,07121.1237,W,1.24,183.49,170124,,,D*7D
2024-01-17T12:10:46.570 $GPVTG,183.49,T,,M,1.24,N,2.29,K,D*31
2024-01-17T12:10:47.470 $GPGGA,171047.000,4217.9754,N,07121.1239,W,2,07,1.67,72.1,M,-33.8,M,0000,0000*6C
2024-01-17T12:10:47.532 $GPGSA,A,3,26,04,31,28,09,16,07,,,,,,1.85,1.67,0.78*00
2024-01-17T12:10:47.593 $GPGSV,3,1,11,16,76,028,19,04,64,244,35,26,48,057,21,09,39,303,18*7E
2024-01-17T12:10:47.674 $GPGSV,3,2,11,31,33,103,27,08,21,191,36,46,14,247,45,28,09,111,26*7B
2024-01-17T12:10:47.745 $GPGSV,3,3,11,18,09,069,15,07,08,296,16,03,01,221,17*42
2024-01-17T12:10:47.818 $GPRMC,171047.000,A,4217.9754,N,07121.1239,W,1.22,184.69,170124,,,D*7C
2024-01-17T12:10:47.860 $GPVTG,184.69,T,,M,1.22,N,2.26,K,D*3D
2024-01-17T12:10:48.461 $GPGGA,171048.000,4217.9754,N,07121.1248,W,2,07,1.68,72.2,M,-33.8,M,0000,0000*69
2024-01-17T12:10:48.523 $GPGSA,A,3,26,04,31,28,09,16,07,,,,,,1.85,1.68,0.78*0F
2024-01-17T12:10:48.604 $GPRMC,171048.000,A,4217.9754,N,07121.1248,W,1.13,192.67,170124,,,D*7E
2024-01-17T12:10:48.647 $GPVTG,192.67,T,,M,1.13,N,2.10,K,D*33
2024-01-17T12:10:49.468 $GPGGA,171049.000,4217.9761,N,07121.1246,W,2,08,1.02,72.2,M,-33.8,M,0000,0000*63
2024-01-17T12:10:49.528 $GPGSA,A,3,26,04,31,28,09,16,07,08,,,,,1.29,1.02,0.78*0D
2024-01-17T12:10:49.610 $GPRMC,171049.000,A,4217.9761,N,07121.1246,W,0.52,199.95,170124,,,D*75
2024-01-17T12:10:49.653 $GPVTG,199.95,T,,M,0.52,N,0.96,K,D*3D
2024-01-17T12:10:50.111 $GPGGA,171050.000,4217.9759,N,07121.1244,W,2,08,1.02,72.3,M,-33.8,M,0000,0000*63
2024-01-17T12:10:50.172 $GPGSA,A,3,26,04,31,28,09,16,07,08,,,,,1.29,1.02,0.78*0D
2024-01-17T12:10:50.252 $GPRMC,171050.000,A,4217.9759,N,07121.1244,W,0.41,166.82,170124,,,D*70
2024-01-17T12:10:50.294 $GPVTG,166.82,T,,M,0.41,N,0.77,K,D*36
2024-01-17T12:10:51.113 $GPGGA,171051.000,4217.9762,N,07121.1242,W,2,08,1.03,72.3,M,-33.8,M,0000,0000*6D
2024-01-17T12:10:51.175 $GPGSA,A,3,26,04,31,28,09,16,07,08,,,,,1.29,1.03,0.78*0C
2024-01-17T12:10:51.255 $GPRMC,171051.000,A,4217.9762,N,07121.1242,W,0.13,84.98,170124,,,D*4E
2024-01-17T12:10:51.300 $GPVTG,84.98,T,,M,0.13,N,0.24,K,D*01
2024-01-17T12:10:52.109 $GPGGA,171052.000,4217.9758,N,07121.1242,W,2,08,1.02,72.4,M,-33.8,M,0000,0000*61
2024-01-17T12:10:52.171 $GPGSA,A,3,26,04,31,28,09,16,07,08,,,,,1.29,1.02,0.78*0D
2024-01-17T12:10:52.252 $GPGSV,3,1,11,16,76,028,18,04,64,244,36,26,47,057,20,09,39,303,18*72
2024-01-17T12:10:52.314 $GPGSV,3,2,11,31,33,103,25,08,21,191,21,46,14,247,41,28,09,111,31*7D
2024-01-17T12:10:52.375 $GPGSV,3,3,11,18,09,069,15,07,08,296,17,03,01,221,14*40
2024-01-17T12:10:52.457 $GPRMC,171052.000,A,4217.9758,N,07121.1242,W,0.04,135.08,170124,,,D*70
2024-01-17T12:10:52.500 $GPVTG,135.08,T,,M,0.04,N,0.07,K,D*34
2024-01-17T12:10:53.128 $GPGGA,171053.000,4217.9758,N,07121.1242,W,2,07,1.15,72.4,M,-33.8,M,0000,0000*69
2024-01-17T12:10:53.189 $GPGSA,A,3,26,04,31,28,09,16,08,,,,,,1.46,1.15,0.89*0B
2024-01-17T12:10:53.260 $GPRMC,171053.000,A,4217.9758,N,07121.1242,W,0.46,84.58,170124,,,D*49
2024-01-17T12:10:53.324 $GPVTG,84.58,T,,M,0.46,N,0.85,K,D*06
2024-01-17T12:10:54.138 $GPGGA,171054.000,4217.9758,N,07121.1240,W,2,08,1.02,72.4,M,-33.8,M,0000,0000*65
2024-01-17T12:10:54.188 $GPGSA,A,3,26,04,31,28,09,16,07,08,,,,,1.29,1.02,0.78*0D
2024-01-17T12:10:54.270 $GPRMC,171054.000,A,4217.9758,N,07121.1240,W,0.52,83.57,170124,,,D*41
2024-01-17T12:10:54.311 $GPVTG,83.57,T,,M,0.52,N,0.97,K,D*08
2024-01-17T12:10:55.145 $GPGGA,171055.000,4217.9758,N,07121.1238,W,2,08,1.02,72.4,M,-33.8,M,0000,0000*6B
2024-01-17T12:10:55.206 $GPGSA,A,3,26,04,31,28,09,16,07,08,,,,,1.29,1.02,0.78*0D
2024-01-17T12:10:55.268 $GPRMC,171055.000,A,4217.9758,N,07121.1238,W,0.84,30.07,170124,,,D*49
2024-01-17T12:10:55.332 $GPVTG,30.07,T,,M,0.84,N,1.56,K,D*02
2024-01-17T12:10:56.134 $GPGGA,171056.000,4217.9758,N,07121.1241,W,2,08,1.02,72.5,M,-33.8,M,0000,0000*67
2024-01-17T12:10:56.204 $GPGSA,A,3,26,04,31,28,09,16,07,08,,,,,1.29,1.02,0.78*0D
2024-01-17T12:10:56.264 $GPRMC,171056.000,A,4217.9758,N,07121.1241,W,0.65,39.17,170124,,,D*43
2024-01-17T12:10:56.333 $GPVTG,39.17,T,,M,0.65,N,1.20,K,D*04
2024-01-17T12:10:57.112 $GPGGA,171057.000,4217.9788,N,07121.1256,W,2,08,1.02,73.4,M,-33.8,M,0000,0000*6D
2024-01-17T12:10:57.174 $GPGSA,A,3,26,04,31,28,09,16,07,08,,,,,1.29,1.02,0.78*0D
2024-01-17T12:10:57.254 $GPGSV,3,1,11,16,76,028,19,04,64,244,35,26,47,057,19,09,39,303,17*75
2024-01-17T12:10:57.316 $GPGSV,3,2,11,31,32,103,34,08,21,191,35,46,14,247,40,28,09,111,31*78
2024-01-17T12:10:57.388 $GPGSV,3,3,11,18,09,069,15,07,08,296,18,03,01,221,12*49
2024-01-17T12:10:57.450 $GPRMC,171057.000,A,4217.9788,N,07121.1256,W,0.33,8.87,170124,,,D*71
2024-01-17T12:10:57.497 $GPVTG,8.87,T,,M,0.33,N,0.61,K,D*38
2024-01-17T12:10:58.134 $GPGGA,171058.000,4217.9791,N,07121.1256,W,2,08,1.04,73.5,M,-33.8,M,0000,0000*6D
2024-01-17T12:10:58.195 $GPGSA,A,3,26,04,31,28,09,16,07,08,,,,,1.62,1.04,1.24*0C
2024-01-17T12:10:58.266 $GPRMC,171058.000,A,4217.9791,N,07121.1256,W,0.37,34.98,170124,,,D*43
2024-01-17T12:10:58.320 $GPVTG,34.98,T,,M,0.37,N,0.68,K,D*04
2024-01-17T12:10:59.121 $GPGGA,171059.000,4217.9802,N,07121.1258,W,2,08,1.02,73.9,M,-33.8,M,0000,0000*6D
2024-01-17T12:10:59.192 $GPGSA,A,3,26,04,31,28,09,16,07,08,,,,,1.29,1.02,0.78*0D
2024-01-17T12:10:59.273 $GPRMC,171059.000,A,4217.9802,N,07121.1258,W,0.40,33.21,170124,,,D*4C
2024-01-17T12:10:59.316 $GPVTG,33.21,T,,M,0.40,N,0.75,K,D*0D
2024-01-17T12:11:00.115 $GPGGA,171100.000,4217.9804,N,07121.1260,W,2,08,1.02,74.0,M,-33.8,M,0000,0000*63
2024-01-17T12:11:00.185 $GPGSA,A,3,26,04,31,28,09,16,07,08,,,,,1.29,1.02,0.78*0D
2024-01-17T12:11:00.258 $GPRMC,171100.000,A,4217.9804,N,07121.1260,W,0.45,27.65,170124,,,D*4C
2024-01-17T12:11:00.312 $GPVTG,27.65,T,,M,0.45,N,0.84,K,D*03
2024-01-17T12:11:01.124 $GPGGA,171101.000,4217.9806,N,07121.1260,W,2,08,1.02,74.0,M,-33.8,M,0000,0000*60
2024-01-17T12:11:01.184 $GPGSA,A,3,26,04,31,28,09,16,07,08,,,,,1.29,1.02,0.78*0D
2024-01-17T12:11:01.263 $GPRMC,171101.000,A,4217.9806,N,07121.1260,W,0.66,28.54,170124,,,D*43
2024-01-17T12:11:01.311 $GPVTG,28.54,T,,M,0.66,N,1.22,K,D*02
2024-01-17T12:11:02.129 $GPGGA,171102.000,4217.9821,N,07121.1259,W,2,08,1.02,74.5,M,-33.8,M,0000,0000*69
2024-01-17T12:11:02.190 $GPGSA,A,3,26,04,31,28,09,16,07,08,,,,,1.29,1.02,0.78*0D
2024-01-17T12:11:02.272 $GPGSV,3,1,11,16,76,028,17,04,64,244,35,26,47,057,16,09,39,303,19*7A
2024-01-17T12:11:02.342 $GPGSV,3,2,11,31,32,103,27,08,21,191,36,46,14,247,38,28,09,111,24*72
2024-01-17T12:11:02.404 $GPGSV,3,3,11,18,09,069,14,07,08,296,21,03,01,221,13*43
2024-01-17T12:11:02.485 $GPRMC,171102.000,A,4217.9821,N,07121.1259,W,0.63,22.49,170124,,,D*4C
2024-01-17T12:11:02.528 $GPVTG,22.49,T,,M,0.63,N,1.16,K,D*06
2024-01-17T12:11:03.140 $GPGGA,171103.000,4217.9827,N,07121.1260,W,2,08,1.02,74.7,M,-33.8,M,0000,0000*66
2024-01-17T12:11:03.191 $GPGSA,A,3,26,04,31,28,09,16,07,08,,,,,1.29,1.02,0.78*0D
2024-01-17T12:11:03.262 $GPRMC,171103.000,A,4217.9827,N,07121.1260,W,0.61,19.20,170124,,,D*44
2024-01-17T12:11:03.332 $GPVTG,19.20,T,,M,0.61,N,1.13,K,D*06
2024-01-17T12:11:04.132 $GPGGA,171104.000,4217.9825,N,07121.1261,W,2,08,1.02,75.0,M,-33.8,M,0000,0000*64
2024-01-17T12:11:04.192 $GPGSA,A,3,26,04,31,28,09,16,07,08,,,,,1.29,1.02,0.78*0D
2024-01-17T12:11:04.274 $GPRMC,171104.000,A,4217.9825,N,07121.1261,W,0.53,3.00,170124,,,D*78
2024-01-17T12:11:04.310 $GPVTG,3.00,T,,M,0.53,N,0.99,K,D*3D
2024-01-17T12:11:05.124 $GPGGA,171105.000,4217.9827,N,07121.1264,W,2,08,1.04,75.0,M,-33.8,M,0000,0000*64
2024-01-17T12:11:05.185 $GPGSA,A,3,26,04,31,28,09,16,07,08,,,,,1.62,1.04,1.25*0D
2024-01-17T12:11:05.265 $GPRMC,171105.000,A,4217.9827,N,07121.1264,W,0.60,21.17,170124,,,D*48
2024-01-17T12:11:05.304 $GPVTG,21.17,T,,M,0.60,N,1.11,K,D*0A
2024-01-17T12:11:06.127 $GPGGA,171106.000,4217.9828,N,07121.1263,W,2,08,1.02,75.1,M,-33.8,M,0000,0000*68
2024-01-17T12:11:06.198 $GPGSA,A,3,26,04,31,28,09,16,07,08,,,,,1.29,1.02,0.78*0D
2024-01-17T12:11:06.268 $GPRMC,171106.000,A,4217.9828,N,07121.1263,W,0.51,38.16,170124,,,D*48
2024-01-17T12:11:06.307 $GPVTG,38.16,T,,M,0.51,N,0.95,K,D*0C
2024-01-17T12:11:07.122 $GPGGA,171107.000,4217.9833,N,07121.1266,W,2,08,1.02,75.3,M,-33.8,M,0000,0000*64
2024-01-17T12:11:07.181 $GPGSA,A,3,26,04,31,28,09,16,07,08,,,,,1.29,1.02,0.78*0D
2024-01-17T12:11:07.253 $GPGSV,3,1,11,16,76,028,17,04,64,244,34,26,47,057,15,09,40,302,31*7D
2024-01-17T12:11:07.324 $GPGSV,3,2,11,31,32,103,24,08,21,191,36,46,14,247,37,28,09,111,28*72
2024-01-17T12:11:07.396 $GPGSV,3,3,11,18,09,069,15,07,08,296,23,03,01,221,14*47
2024-01-17T12:11:07.456 $GPRMC,171107.000,A,4217.9833,N,07121.1266,W,0.32,13.70,170124,,,D*4A
2024-01-17T12:11:07.676 $GPVTG,13.70,T,,M,0.32,N,0.58,K,D*01
2024-01-17T12:11:08.144 $GPGGA,171108.000,4217.9839,N,07121.1263,W,2,08,1.04,75.5,M,-33.8,M,0000,0000*64
2024-01-17T12:11:08.204 $GPGSA,A,3,26,04,31,28,09,16,07,08,,,,,1.62,1.04,1.25*0D
2024-01-17T12:11:08.267 $GPRMC,171108.000,A,4217.9839,N,07121.1263,W,0.47,36.27,170124,,,D*4D
2024-01-17T12:11:08.472 $GPVTG,36.27,T,,M,0.47,N,0.86,K,D*05
2024-01-17T12:11:09.121 $GPGGA,171109.000,4217.9841,N,07121.1262,W,2,08,1.02,75.4,M,-33.8,M,0000,0000*6C
2024-01-17T12:11:09.182 $GPGSA,A,3,26,04,31,28,09,16,07,08,,,,,1.29,1.02,0.78*0D
2024-01-17T12:11:09.264 $GPRMC,171109.000,A,4217.9841,N,07121.1262,W,0.48,52.19,170124,,,D*42
2024-01-17T12:11:09.312 $GPVTG,52.19,T,,M,0.48,N,0.88,K,D*0B
2024-01-17T12:11:10.111 $GPGGA,171110.000,4217.9842,N,07121.1261,W,2,08,1.02,75.4,M,-33.8,M,0000,0000*64
2024-01-17T12:11:10.172 $GPGSA,A,3,26,04,31,28,09,16,07,08,,,,,1.29,1.02,0.78*0D
2024-01-17T12:11:10.253 $GPRMC,171110.000,A,4217.9842,N,07121.1261,W,0.50,12.74,170124,,,D*4C
2024-01-17T12:11:10.303 $GPVTG,12.74,T,,M,0.50,N,0.92,K,D*06
2024-01-17T12:11:11.135 $GPGGA,171111.000,4217.9843,N,07121.1261,W,2,08,1.04,75.4,M,-33.8,M,0000,0000*62
2024-01-17T12:11:11.195 $GPGSA,A,3,26,04,31,28,09,16,07,08,,,,,1.62,1.04,1.25*0D
2024-01-17T12:11:11.256 $GPRMC,171111.000,A,4217.9843,N,07121.1261,W,0.43,35.57,170124,,,D*4A
2024-01-17T12:11:11.478 $GPVTG,35.57,T,,M,0.43,N,0.79,K,D*05
2024-01-17T12:11:12.128 $GPGGA,171112.000,4217.9844,N,07121.1260,W,2,08,1.02,75.4,M,-33.8,M,0000,0000*61
2024-01-17T12:11:12.188 $GPGSA,A,3,26,04,31,28,09,16,07,08,,,,,1.29,1.02,0.78*0D
2024-01-17T12:11:12.271 $GPGSV,3,1,11,16,76,028,17,04,64,244,32,26,47,057,17,09,40,302,37*7F
2024-01-17T12:11:12.332 $GPGSV,3,2,11,31,32,103,24,08,21,191,29,46,14,247,28,28,09,111,26*7C
2024-01-17T12:11:12.393 $GPGSV,3,3,11,18,09,069,15,07,08,296,22,03,01,221,14*46
2024-01-17T12:11:12.474 $GPRMC,171112.000,A,4217.9844,N,07121.1260,W,0.56,15.18,170124,,,D*42
2024-01-17T12:11:12.517 $GPVTG,15.18,T,,M,0.56,N,1.04,K,D*03
2024-01-17T12:11:13.449 $GPGGA,171113.000,4217.9845,N,07121.1260,W,2,08,1.02,75.4,M,-33.8,M,0000,0000*61
2024-01-17T12:11:13.498 $GPGSA,A,3,26,04,31,28,09,16,07,08,,,,,1.29,1.02,0.78*0D
2024-01-17T12:11:13.580 $GPRMC,171113.000,A,4217.9845,N,07121.1260,W,0.53,15.84,170124,,,D*42
2024-01-17T12:11:13.815 $GPVTG,15.84,T,,M,0.53,N,0.99,K,D*06
2024-01-17T12:11:14.486 $GPGGA,171114.000,4217.9847,N,07121.1259,W,2,08,1.02,75.4,M,-33.8,M,0000,0000*6E
2024-01-17T12:11:14.537 $GPGSA,A,3,26,04,31,28,09,16,07,08,,,,,1.29,1.02,0.78*0D
2024-01-17T12:11:14.617 $GPRMC,171114.000,A,4217.9847,N,07121.1259,W,0.77,22.99,170124,,,D*43
2024-01-17T12:11:14.835 $GPVTG,22.99,T,,M,0.77,N,1.43,K,D*0E
2024-01-17T12:11:15.481 $GPGGA,171115.000,4217.9847,N,07121.1268,W,2,08,1.02,75.2,M,-33.8,M,0000,0000*6B
2024-01-17T12:11:15.542 $GPGSA,A,3,26,04,31,28,09,16,07,08,,,,,1.29,1.02,0.78*0D
2024-01-17T12:11:15.623 $GPRMC,171115.000,A,4217.9847,N,07121.1268,W,0.57,27.07,170124,,,D*40
2024-01-17T12:11:15.667 $GPVTG,27.07,T,,M,0.57,N,1.06,K,D*0F
2024-01-17T12:11:16.474 $GPGGA,171116.000,4217.9846,N,07121.1276,W,2,08,1.02,75.1,M,-33.8,M,0000,0000*65
2024-01-17T12:11:16.536 $GPGSA,A,3,26,04,31,28,09,16,07,08,,,,,1.29,1.02,0.78*0D
2024-01-17T12:11:16.616 $GPRMC,171116.000,A,4217.9846,N,07121.1276,W,0.50,12.63,170124,,,D*4E
2024-01-17T12:11:16.657 $GPVTG,12.63,T,,M,0.50,N,0.92,K,D*00
2024-01-17T12:11:17.433 $GPGGA,171117.000,4217.9832,N,07121.1303,W,2,08,1.04,77.5,M,-33.8,M,0000,0000*64
2024-01-17T12:11:17.493 $GPGSA,A,3,26,04,31,28,09,16,07,08,,,,,1.62,1.04,1.25*0D
2024-01-17T12:11:17.563 $GPGSV,3,1,11,16,76,029,20,04,64,244,33,26,47,057,21,09,40,302,38*71
2024-01-17T12:11:17.645 $GPGSV,3,2,11,31,32,103,38,08,21,191,25,46,14,247,25,28,09,111,32*75
2024-01-17T12:11:17.704 $GPGSV,3,3,11,18,09,068,17,07,08,296,39,03,01,221,12*49
2024-01-17T12:11:17.766 $GPRMC,171117.000,A,4217.9832,N,07121.1303,W,0.26,3.72,170124,,,D*7E
2024-01-17T12:11:17.998 $GPVTG,3.72,T,,M,0.26,N,0.49,K,D*37
2024-01-17T12:11:18.440 $GPGGA,171118.000,4217.9822,N,07121.1348,W,2,08,1.04,77.6,M,-33.8,M,0000,0000*66
2024-01-17T12:11:18.500 $GPGSA,A,3,26,04,31,28,09,16,07,08,,,,,1.62,1.04,1.25*0D
2024-01-17T12:11:18.573 $GPRMC,171118.000,A,4217.9822,N,07121.1348,W,0.13,347.66,170124,,,D*7F
2024-01-17T12:11:18.629 $GPVTG,347.66,T,,M,0.13,N,0.23,K,D*3B
2024-01-17T12:11:19.434 $GPGGA,171119.000,4217.9822,N,07121.1349,W,2,08,1.04,77.6,M,-33.8,M,0000,0000*66
2024-01-17T12:11:19.495 $GPGSA,A,3,26,04,31,28,09,16,07,08,,,,,1.62,1.04,1.25*0D
2024-01-17T12:11:19.576 $GPRMC,171119.000,A,4217.9822,N,07121.1349,W,0.02,52.57,170124,,,D*4A
2024-01-17T12:11:19.618 $GPVTG,52.57,T,,M,0.02,N,0.04,K,D*0B
2024-01-17T12:11:20.486 $GPGGA,171120.000,4217.9822,N,07121.1349,W,2,08,1.02,77.6,M,-33.8,M,0000,0000*6A
2024-01-17T12:11:20.547 $GPGSA,A,3,26,04,31,28,09,16,07,08,,,,,1.29,1.02,0.78*0D
2024-01-17T12:11:20.628 $GPRMC,171120.000,A,4217.9822,N,07121.1349,W,0.20,94.02,170124,,,D*4A
2024-01-17T12:11:20.679 $GPVTG,94.02,T,,M,0.20,N,0.36,K,D*00
2024-01-17T12:11:21.427 $GPGGA,171121.000,4217.9822,N,07121.1349,W,2,08,1.02,77.6,M,-33.8,M,0000,0000*6B
2024-01-17T12:11:21.499 $GPGSA,A,3,26,04,31,28,09,16,07,08,,,,,1.29,1.02,0.78*0D
2024-01-17T12:11:21.579 $GPRMC,171121.000,A,4217.9822,N,07121.1349,W,0.42,168.55,170124,,,D*7F
2024-01-17T12:11:21.622 $GPVTG,168.55,T,,M,0.42,N,0.79,K,D*3F
2024-01-17T12:11:22.441 $GPGGA,171122.000,4217.9820,N,07121.1349,W,2,08,1.02,77.6,M,-33.8,M,0000,0000*6A
2024-01-17T12:11:22.481 $GPGSA,A,3,26,04,31,28,09,16,07,08,,,,,1.29,1.02,0.78*0D
2024-01-17T12:11:22.562 $GPGSV,3,1,11,16,76,029,22,04,64,244,32,26,47,057,34,09,40,302,29*76
2024-01-17T12:11:22.643 $GPGSV,3,2,11,31,32,103,39,08,21,191,27,46,14,247,24,28,09,111,38*7D
2024-01-17T12:11:22.694 $GPGSV,3,3,11,18,09,068,16,07,08,296,36,03,01,221,14*41
2024-01-17T12:11:22.775 $GPRMC,171122.000,A,4217.9820,N,07121.1349,W,0.66,150.90,170124,,,D*7A
2024-01-17T12:11:22.842 $GPVTG,150.90,T,,M,0.66,N,1.22,K,D*34
2024-01-17T12:11:23.427 $GPGGA,171123.000,4217.9808,N,07121.1385,W,2,08,1.02,77.8,M,-33.8,M,0000,0000*6F
2024-01-17T12:11:23.497 $GPGSA,A,3,26,04,31,28,09,16,07,08,,,,,1.29,1.02,0.78*0D
2024-01-17T12:11:23.569 $GPRMC,171123.000,A,4217.9808,N,07121.1385,W,1.05,152.22,170124,,,D*7E
2024-01-17T12:11:23.616 $GPVTG,152.22,T,,M,1.05,N,1.94,K,D*36
2024-01-17T12:11:24.433 $GPGGA,171124.000,4217.9805,N,07121.1405,W,2,08,1.02,77.9,M,-33.8,M,0000,0000*6B
2024-01-17T12:11:24.504 $GPGSA,A,3,26,04,31,28,09,16,07,08,,,,,1.29,1.02,0.78*0D
2024-01-17T12:11:24.565 $GPRMC,171124.000,A,4217.9805,N,07121.1405,W,1.01,159.68,170124,,,D*7A
2024-01-17T12:11:24.770 $GPVTG,159.68,T,,M,1.01,N,1.88,K,D*3A
2024-01-17T12:11:25.457 $GPGGA,171125.000,4217.9796,N,07121.1426,W,2,08,1.02,77.5,M,-33.8,M,0000,0000*62
2024-01-17T12:11:25.518 $GPGSA,A,3,26,04,31,28,09,16,07,08,,,,,1.29,1.02,0.78*0D
2024-01-17T12:11:25.593 $GPRMC,171125.000,A,4217.9796,N,07121.1426,W,1.35,169.66,170124,,,D*75
2024-01-17T12:11:25.647 $GPVTG,169.66,T,,M,1.35,N,2.49,K,D*3E
2024-01-17T12:11:26.450 $GPGGA,171126.000,4217.9790,N,07121.1435,W,2,08,1.02,77.1,M,-33.8,M,0000,0000*61
2024-01-17T12:11:26.513 $GPGSA,A,3,26,04,31,28,09,16,07,08,,,,,1.29,1.02,0.78*0D
2024-01-17T12:11:26.594 $GPRMC,171126.000,A,4217.9790,N,07121.1435,W,1.28,170.56,170124,,,D*75
2024-01-17T12:11:26.646 $GPVTG,170.56,T,,M,1.28,N,2.37,K,D*30
2024-01-17T12:11:27.506 $GPGGA,171127.000,4217.9785,N,07121.1441,W,2,08,1.02,76.8,M,-33.8,M,0000,0000*6F
2024-01-17T12:11:27.566 $GPGSA,A,3,26,04,31,28,09,16,07,08,,,,,1.29,1.02,0.78*0D
2024-01-17T12:11:27.647 $GPGSV,3,1,11,16,76,029,25,04,64,244,30,26,47,057,37,09,40,302,24*7D
2024-01-17T12:11:27.728 $GPGSV,3,2,11,31,32,103,38,08,21,191,29,46,14,247,24,28,09,111,37*7D
2024-01-17T12:11:27.780 $GPGSV,3,3,11,18,09,068,16,07,08,296,31,03,01,221,14*46
2024-01-17T12:11:27.860 $GPRMC,171127.000,A,4217.9785,N,07121.1441,W,1.29,177.30,170124,,,D*75
2024-01-17T12:11:27.912 $GPVTG,177.30,T,,M,1.29,N,2.39,K,D*38
2024-01-17T12:11:28.429 $GPGGA,171128.000,4217.9783,N,07121.1444,W,2,08,1.02,76.7,M,-33.8,M,0000,0000*6C
2024-01-17T12:11:28.504 $GPGSA,A,3,26,04,31,28,09,16,07,08,,,,,1.29,1.02,0.78*0D
2024-01-17T12:11:28.574 $GPRMC,171128.000,A,4217.9783,N,07121.1444,W,1.25,182.15,170124,,,D*78
2024-01-17T12:11:28.617 $GPVTG,182.15,T,,M,1.25,N,2.31,K,D*31
2024-01-17T12:11:29.476 $GPGGA,171129.000,4217.9780,N,07121.1445,W,2,08,1.02,76.6,M,-33.8,M,0000,0000*6E
2024-01-17T12:11:29.536 $GPGSA,A,3,26,04,31,28,09,16,07,08,,,,,1.29,1.02,0.78*0D
2024-01-17T12:11:29.618 $GPRMC,171129.000,A,4217.9780,N,07121.1445,W,1.35,182.43,170124,,,D*79
2024-01-17T12:11:29.860 $GPVTG,182.43,T,,M,1.35,N,2.50,K,D*34
2024-01-17T12:11:30.450 $GPGGA,171130.000,4217.9774,N,07121.1452,W,2,08,1.02,76.2,M,-33.8,M,0000,0000*6F
2024-01-17T12:11:30.510 $GPGSA,A,3,26,04,31,28,09,16,07,08,,,,,1.29,1.02,0.78*0D
2024-01-17T12:11:30.573 $GPRMC,171130.000,A,4217.9774,N,07121.1452,W,1.41,182.00,170124,,,D*78
2024-01-17T12:11:30.816 $GPVTG,182.00,T,,M,1.41,N,2.61,K,D*32
2024-01-17T12:11:31.458 $GPGGA,171131.000,4217.9770,N,07121.1454,W,2,08,1.02,76.1,M,-33.8,M,0000,0000*6F
2024-01-17T12:11:31.518 $GPGSA,A,3,26,04,31,28,09,16,07,08,,,,,1.29,1.02,0.78*0D
2024-01-17T12:11:31.579 $GPRMC,171131.000,A,4217.9770,N,07121.1454,W,1.55,183.16,170124,,,D*78
2024-01-17T12:11:31.869 $GPVTG,183.16,T,,M,1.55,N,2.87,K,D*39
2024-01-17T12:11:32.468 $GPGGA,171132.000,4217.9768,N,07121.1456,W,2,08,1.02,76.0,M,-33.8,M,0000,0000*66
2024-01-17T12:11:32.507 $GPGSA,A,3,26,04,31,28,09,16,07,08,,,,,1.29,1.02,0.78*0D
2024-01-17T12:11:32.587 $GPGSV,3,1,11,16,76,029,27,04,64,244,25,26,47,057,27,09,40,302,20*7E
2024-01-17T12:11:32.668 $GPGSV,3,2,11,31,32,104,27,08,21,191,39,28,09,111,26,18,09,068,24*7D
2024-01-17T12:11:32.719 $GPGSV,3,3,11,07,08,296,23,03,01,221,,47,,,*7A
2024-01-17T12:11:32.779 $GPRMC,171132.000,A,4217.9768,N,07121.1456,W,1.46,179.73,170124,,,D*74
2024-01-17T12:11:32.836 $GPVTG,179.73,T,,M,1.46,N,2.70,K,D*35
2024-01-17T12:11:33.465 $GPGGA,171133.000,4217.9764,N,07121.1458,W,2,08,1.02,75.8,M,-33.8,M,0000,0000*6E
2024-01-17T12:11:33.536 $GPGSA,A,3,26,04,31,28,09,16,07,08,,,,,1.29,1.02,0.78*0D
2024-01-17T12:11:33.597 $GPRMC,171133.000,A,4217.9764,N,07121.1458,W,1.49,183.62,170124,,,D*7D
2024-01-17T12:11:33.870 $GPVTG,183.62,T,,M,1.49,N,2.76,K,D*39
2024-01-17T12:11:34.493 $GPGGA,171134.000,4217.9761,N,07121.1465,W,2,08,1.02,75.6,M,-33.8,M,0000,0000*6C
2024-01-17T12:11:34.556 $GPGSA,A,3,26,04,31,28,09,16,07,08,,,,,1.29,1.02,0.78*0D
2024-01-17T12:11:34.617 $GPRMC,171134.000,A,4217.9761,N,07121.1465,W,1.50,188.21,170124,,,D*75
2024-01-17T12:11:34.667 $GPVTG,188.21,T,,M,1.50,N,2.79,K,D*32
2024-01-17T12:11:35.467 $GPGGA,171135.000,4217.9759,N,07121.1468,W,2,08,1.02,75.5,M,-33.8,M,0000,0000*68
2024-01-17T12:11:35.529 $GPGSA,A,3,26,04,31,28,09,16,07,08,,,,,1.29,1.02,0.78*0D
2024-01-17T12:11:35.602 $GPRMC,171135.000,A,4217.9759,N,07121.1468,W,1.38,189.09,170124,,,D*77
2024-01-17T12:11:35.649 $GPVTG,189.09,T,,M,1.38,N,2.56,K,D*3A
2024-01-17T12:11:36.477 $GPGGA,171136.000,4217.9751,N,07121.1473,W,2,08,1.02,75.2,M,-33.8,M,0000,0000*6E
2024-01-17T12:11:36.529 $GPGSA,A,3,26,04,31,28,09,16,07,08,,,,,1.29,1.02,0.78*0D
2024-01-17T12:11:36.599 $GPRMC,171136.000,A,4217.9751,N,07121.1473,W,1.61,184.39,170124,,,D*74
2024-01-17T12:11:36.650 $GPVTG,184.39,T,,M,1.61,N,2.98,K,D*3A
2024-01-17T12:11:37.501 $GPGGA,171137.000,4217.9747,N,07121.1479,W,2,08,1.02,75.0,M,-33.8,M,0000,0000*60
2024-01-17T12:11:37.562 $GPGSA,A,3,26,04,31,28,09,16,07,08,,,,,1.29,1.02,0.78*0D
2024-01-17T12:11:37.623 $GPGSV,3,1,11,16,76,029,27,04,64,243,26,26,47,057,29,09,40,302,19*7E
2024-01-17T12:11:37.704 $GPGSV,3,2,11,31,32,104,29,08,21,191,37,28,09,111,27,18,09,068,24*7C
2024-01-17T12:11:37.757 $GPGSV,3,3,11,07,08,296,18,03,01,220,,49,,,*7D
2024-01-17T12:11:37.836 $GPRMC,171137.000,A,4217.9747,N,07121.1479,W,1.57,185.28,170124,,,D*7C
2024-01-17T12:11:37.889 $GPVTG,185.28,T,,M,1.57,N,2.90,K,D*36
2024-01-17T12:11:38.475 $GPGGA,171138.000,4217.9742,N,07121.1479,W,2,08,1.02,74.9,M,-33.8,M,0000,0000*62
2024-01-17T12:11:38.527 $GPGSA,A,3,26,04,31,28,09,16,07,08,,,,,1.29,1.02,0.78*0D
2024-01-17T12:11:38.609 $GPRMC,171138.000,A,4217.9742,N,07121.1479,W,1.50,179.08,170124,,,D*70
2024-01-17T12:11:38.663 $GPVTG,179.08,T,,M,1.50,N,2.78,K,D*36
2024-01-17T12:11:39.419 $GPGGA,171139.000,4217.9737,N,07121.1484,W,2,08,1.02,74.8,M,-33.8,M,0000,0000*62
2024-01-17T12:11:39.477 $GPGSA,A,3,26,04,31,28,09,16,07,08,,,,,1.29,1.02,0.78*0D
2024-01-17T12:11:39.558 $GPRMC,171139.000,A,4217.9737,N,07121.1484,W,1.63,181.31,170124,,,D*7C
2024-01-17T12:11:39.608 $GPVTG,181.31,T,,M,1.63,N,3.02,K,D*37
2024-01-17T12:11:40.429 $GPGGA,171140.000,4217.9732,N,07121.1485,W,2,08,1.02,74.7,M,-33.8,M,0000,0000*67
2024-01-17T12:11:40.490 $GPGSA,A,3,26,04,31,28,09,16,07,08,,,,,1.29,1.02,0.78*0D
2024-01-17T12:11:40.571 $GPRMC,171140.000,A,4217.9732,N,07121.1485,W,1.65,179.22,170124,,,D*75
2024-01-17T12:11:40.622 $GPVTG,179.22,T,,M,1.65,N,3.06,K,D*30
2024-01-17T12:11:41.501 $GPGGA,171141.000,4217.9728,N,07121.1485,W,2,08,1.02,74.7,M,-33.8,M,0000,0000*6D
2024-01-17T12:11:41.542 $GPGSA,A,3,26,04,31,28,09,16,07,08,,,,,1.29,1.02,0.78*0D
2024-01-17T12:11:41.621 $GPRMC,171141.000,A,4217.9728,N,07121.1485,W,1.45,178.19,170124,,,D*74
2024-01-17T12:11:41.830 $GPVTG,178.19,T,,M,1.45,N,2.69,K,D*33
2024-01-17T12:11:42.455 $GPGGA,171142.000,4217.9724,N,07121.1486,W,2,08,1.02,74.5,M,-33.8,M,0000,0000*63
2024-01-17T12:11:42.517 $GPGSA,A,3,26,04,31,28,09,16,07,08,,,,,1.29,1.02,0.78*0D
2024-01-17T12:11:42.590 $GPGSV,3,1,11,16,76,029,26,04,64,243,26,26,47,057,27,09,40,302,21*7A
2024-01-17T12:11:42.660 $GPGSV,3,2,11,31,32,104,26,08,22,191,36,28,09,111,28,18,09,068,24*7E
2024-01-17T12:11:42.712 $GPGSV,3,3,11,07,08,296,19,03,01,220,,37,,,*75
2024-01-17T12:11:42.794 $GPRMC,171142.000,A,4217.9724,N,07121.1486,W,1.46,178.93,170124,,,D*79
2024-01-17T12:11:42.836 $GPVTG,178.93,T,,M,1.46,N,2.71,K,D*3B
2024-01-17T12:11:43.452 $GPGGA,171143.000,4217.9720,N,07121.1490,W,2,08,1.02,74.5,M,-33.8,M,0000,0000*61
2024-01-17T12:11:43.513 $GPGSA,A,3,26,04,31,28,09,16,07,08,,,,,1.29,1.02,0.78*0D
2024-01-17T12:11:43.594 $GPRMC,171143.000,A,4217.9720,N,07121.1490,W,1.57,183.49,170124,,,D*78
2024-01-17T12:11:43.635 $GPVTG,183.49,T,,M,1.57,N,2.92,K,D*35
2024-01-17T12:11:44.435 $GPGGA,171144.000,4217.9717,N,07121.1490,W,2,08,1.02,74.5,M,-33.8,M,0000,0000*62
2024-01-17T12:11:44.506 $GPGSA,A,3,26,04,31,28,09,16,07,08,,,,,1.29,1.02,0.78*0D
2024-01-17T12:11:44.588 $GPRMC,171144.000,A,4217.9717,N,07121.1490,W,1.37,178.71,170124,,,D*72
2024-01-17T12:11:44.630 $GPVTG,178.71,T,,M,1.37,N,2.54,K,D*36
2024-01-17T12:11:45.449 $GPGGA,171145.000,4217.9714,N,07121.1492,W,2,08,1.02,74.4,M,-33.8,M,0000,0000*63
2024-01-17T12:11:45.510 $GPGSA,A,3,26,04,31,28,09,16,07,08,,,,,1.29,1.02,0.78*0D
